,ID,Severity,Start_Time,End_Time,Start_Lat,Start_Lng,End_Lat,End_Lng,Distance(mi),Description,Number,Street,Side,City,County,State,Zipcode,Country,Timezone,Airport_Code,Weather_Timestamp,Temperature(F),Wind_Chill(F),Humidity(%),Pressure(in),Visibility(mi),Wind_Direction,Wind_Speed(mph),Precipitation(in),Weather_Condition,Amenity,Bump,Crossing,Give_Way,Junction,No_Exit,Railway,Roundabout,Station,Stop,Traffic_Calming,Traffic_Signal,Turning_Loop,Sunrise_Sunset,Civil_Twilight,Nautical_Twilight,Astronomical_Twilight
0,A-1,2,2019-05-21 08:29:55,2019-05-21 09:29:40,34.808868,-82.26915699999999,34.808868,-82.26915699999999,0.0,Accident on Tanner Rd at Pennbrooke Ln.,439.0,Tanner Rd,R,Greenville,Greenville,SC,29607-6027,US,US/Eastern,KGMU,2019-05-21 08:53:00,76.0,76.0,52.0,28.91,10.0,N,7.0,0.0,Fair,False,False,False,False,False,False,False,False,False,False,False,False,False,Day,Day,Day,Day
1,A-2,2,2019-10-07 17:43:09,2019-10-07 19:42:50,35.09008,-80.74556,35.09008,-80.74556,0.0,Accident on Houston Branch Rd at Providence Branch Ln.,3299.0,Providence Branch Ln,R,Charlotte,Mecklenburg,NC,28270-8560,US,US/Eastern,KEQY,2019-10-07 17:53:00,76.0,76.0,62.0,29.3,10.0,VAR,3.0,0.0,Cloudy,False,False,False,False,False,False,False,False,False,False,False,False,False,Day,Day,Day,Day
2,A-3,2,2020-12-13 21:53:00,2020-12-13 22:44:00,37.14573,-121.985052,37.16585,-121.988062,1.4,Stationary traffic on CA-17 from Summit Rd (CA-17) to Idylwild Rd (CA-17) due to accident.,,Santa Cruz Hwy,R,Los Gatos,Santa Clara,CA,95033,US,US/Pacific,KSJC,2020-12-13 21:53:00,51.0,51.0,80.0,30.17,10.0,W,6.0,0.0,Fair,False,False,False,False,False,False,False,False,False,False,False,False,False,Night,Night,Night,Night
3,A-4,2,2018-04-17 16:51:23,2018-04-17 17:50:46,39.11039,-119.773781,39.11039,-119.773781,0.0,Accident on US-395 Southbound at Topsy Ln.,,US Highway 395 S,R,Carson City,Douglas,NV,89705,US,US/Pacific,KCXP,2018-04-17 16:55:00,53.6,,16.0,30.16,10.0,SSW,4.6,,Clear,False,False,False,False,False,False,False,False,False,False,False,True,False,Day,Day,Day,Day
4,A-5,3,2016-08-31 17:40:49,2016-08-31 18:10:49,26.102942,-80.265091,26.102942,-80.265091,0.0,Accident on I-595 Westbound at Exit 4 / Pine Island Rd.,,I-595 W,R,Fort Lauderdale,Broward,FL,33324,US,US/Eastern,KHWO,2016-08-31 17:53:00,84.2,,84.0,29.92,10.0,SSE,13.8,,Overcast,False,False,False,False,True,False,False,False,False,False,False,True,False,Day,Day,Day,Day
5,A-6,3,2018-10-17 16:40:36,2018-10-17 17:10:18,35.348240000000004,-80.84722099999999,35.348240000000004,-80.84722099999999,0.0,Three lanes blocked due to accident on I-77 Northbound at Exit 18 NC-24 W.T. Harris Blvd.,,W W.T. Harris Blvd,R,Charlotte,Mecklenburg,NC,28269,US,US/Eastern,KJQF,2018-10-17 16:58:00,73.4,,33.0,30.17,10.0,NNW,6.9,,Clear,False,False,False,False,False,False,False,False,False,False,False,False,False,Day,Day,Day,Day
6,A-7,4,2019-12-12 09:48:52,2019-12-12 10:18:05,39.52397,-107.777,39.56578,-107.51695,14.153,Closed between CO-13/Taughenbaugh Blvd/Exit 90 and CR-240/Exit 105 - Road closed due to accident.,,I-70 E,R,Rifle,Garfield,CO,81650,US,US/Mountain,KRIL,2019-12-12 09:46:00,28.0,28.0,88.0,24.67,2.0,NE,3.0,0.0,Light Snow,False,False,False,False,False,False,False,False,False,False,False,False,False,Day,Day,Day,Day
7,A-8,2,2019-12-21 23:59:00,2019-12-22 00:32:06,34.034017,-118.026972,34.034017,-118.026972,0.0,At CA-60/Pomona Fwy - Accident.,,CA-60 W,R,Whittier,Los Angeles,CA,90601,US,US/Pacific,KEMT,2019-12-21 23:53:00,55.0,55.0,40.0,29.86,10.0,E,5.0,0.0,Fair,False,False,False,False,False,False,False,False,False,False,False,False,False,Night,Night,Night,Night
8,A-9,2,2018-05-23 16:50:24,2018-05-23 22:50:24,35.863490000000006,-86.83168,35.84948,-86.83253,0.969,At TN-248/Peytonsville Rd/Exit 61 - Accident. Right lane blocked.,425.0, Old Peytonsville Rd,R,Franklin,Williamson,TN,37064-5029,US,US/Central,KBNA,2018-05-23 16:53:00,87.1,,43.0,30.04,10.0,NE,8.1,,Mostly Cloudy,False,False,False,False,False,False,False,False,False,False,False,False,False,Day,Day,Day,Day
9,A-10,2,2019-01-30 08:44:18,2019-01-30 09:14:17,34.42633,-118.5851,34.42022,-118.5819,0.46,At Magic Mountain Pky - Accident. Hard shoulder blocked.,,Golden State Fwy S,R,Valencia,Los Angeles,CA,91355,US,US/Pacific,K3A6,2019-01-30 08:39:00,57.0,57.0,77.0,29.08,5.0,VAR,5.0,0.0,Mostly Cloudy,False,False,False,False,False,False,False,False,False,False,False,False,False,Day,Day,Day,Day
10,A-11,2,2019-12-20 08:20:12,2019-12-20 10:05:05,28.021709,-82.203583,28.021709,-82.203583,0.0,Restrictions due to accident on US-92 at Bethlehem Rd.,4499.0,Bethlehem Rd,L,Dover,Hillsborough,FL,33527-3948,US,US/Eastern,KPCM,2019-12-20 08:50:00,57.0,57.0,88.0,30.05,10.0,NE,6.0,0.0,Fair,False,False,False,False,False,False,False,False,False,False,False,False,False,Day,Day,Day,Day
11,A-12,2,2020-12-17 16:38:09,2020-12-17 19:36:53,40.91221,-73.875099,40.916901,-73.87144,0.376,Crash on I-87 - NYS Thruway southbound at After Exit 1 (I-87) - Yonkers - Hall Place starting 8:38 AM 12/17/2020 [CARS CAD-203520172],,I-87 N,R,Yonkers,Westchester,NY,10704,US,US/Eastern,KLGA,2020-12-17 16:51:00,32.0,21.0,61.0,30.0,10.0,NNW,16.0,0.0,Fair,False,False,False,False,False,False,False,False,False,False,False,False,False,Night,Day,Day,Day
12,A-13,2,2018-04-19 12:48:57,2018-04-19 18:48:57,32.86693,-96.66617,32.86156,-96.65769,0.616,At Northwest Hwy/Exit 11 - Accident.,,LBJ Fwy E,R,Garland,Dallas,TX,75041,US,US/Central,KHQZ,2018-04-19 12:50:00,64.4,,32.0,30.37,10.0,NNW,12.7,,Clear,False,False,False,False,False,False,False,False,False,False,False,False,False,Day,Day,Day,Day
13,A-14,2,2017-08-16 17:26:10,2017-08-16 17:55:57,32.265141,-110.90358700000002,32.265141,-110.90358700000002,0.0,Accident on Fort Lowell Rd at Avenida del Clarin.,4198.0,E Fort Lowell Rd,R,Tucson,Pima,AZ,85712-1013,US,US/Mountain,KDMA,2017-08-16 16:58:00,97.7,,16.0,29.8,10.0,West,4.6,,Clear,False,False,False,False,False,False,False,False,False,False,False,False,False,Day,Day,Day,Day
14,A-15,3,2020-05-27 19:45:37,2020-05-27 20:15:37,41.05982,-74.25092,41.02848,-74.25178000000001,2.166,At I-287/W Oakland Ave - Accident.,,Skyline Dr,R,Oakland,Bergen,NJ,07436,US,US/Eastern,KCDW,2020-05-27 19:53:00,72.0,72.0,71.0,30.0,10.0,S,6.0,0.0,Mostly Cloudy,False,False,False,False,False,False,False,False,False,False,False,False,False,Day,Day,Day,Day
15,A-16,2,2019-04-11 16:35:14,2019-04-11 18:59:25,29.723339000000003,-95.497337,29.723339000000003,-95.497337,0.0,Accident on Westpark Dr at 14th St.,6397.0,Westpark Dr,L,Houston,Harris,TX,77057-7203,US,US/Central,KMCJ,2019-04-11 16:53:00,77.0,77.0,71.0,29.6,10.0,SSW,8.0,0.0,Cloudy,False,False,False,False,False,False,False,False,False,False,False,True,False,Day,Day,Day,Day
16,A-17,2,2016-07-09 14:54:01,2016-07-09 15:54:01,34.103172,-118.249969,34.103172,-118.249969,0.0,Accident on CA-2 Southbound at Exit 13 I-5.,,CA-2 S,R,Los Angeles,Los Angeles,CA,90039,US,US/Pacific,KCQT,2016-07-09 14:47:00,78.1,,60.0,29.99,10.0,Variable,3.5,,Clear,False,False,False,False,False,False,False,False,False,False,False,False,False,Day,Day,Day,Day
17,A-18,2,2020-11-21 16:32:00,2020-11-21 20:18:30,34.186595000000004,-117.439427,34.185871,-117.439039,0.055,Incident on SIERRA AVE near LYTLE CREEK RD Expect delays.,3738.0, Sierra Ave,R,Fontana,San Bernardino,CA,92336-1108,US,US/Pacific,KONT,2020-11-21 16:53:00,75.0,75.0,26.0,28.98,9.0,WSW,6.0,0.0,Mostly Cloudy,False,False,False,False,False,False,False,False,False,False,False,False,False,Day,Day,Day,Day
18,A-19,2,2020-12-10 13:29:00,2020-12-10 15:26:50,42.501929,-82.918056,42.496109,-82.917286,0.4039999999999999,Incident on I-94 WB near I-696 Drive with caution.,,I-94 W,R,Saint Clair Shores,Macomb,MI,48081,US,US/Eastern,KDET,2020-12-10 13:53:00,47.0,44.0,66.0,29.38,7.0,S,7.0,0.0,Fair,False,False,False,False,False,False,False,False,False,False,False,False,False,Day,Day,Day,Day
19,A-20,2,2020-04-18 14:41:08,2020-04-18 15:25:50,41.556862,-73.779556,41.556862,-73.779556,0.0,Right hand shoulder blocked due to accident on Taconic State Pkwy Southbound at NY-52.,,Taconic State Pkwy,R,Hopewell Junction,Dutchess,NY,12533,US,US/Eastern,KPOU,2020-04-18 14:53:00,45.0,38.0,63.0,29.59,10.0,N,15.0,0.0,Cloudy,False,False,False,False,True,False,False,False,False,False,False,False,False,Day,Day,Day,Day
20,A-21,3,2020-08-22 16:19:52,2020-08-22 18:05:42,33.918056,-84.33802800000001,33.918056,-84.33802800000001,0.0,Lane blocked due to accident on I-285 Eastbound at Exit 29 Ashford Dunwoody Rd.,,Ashford Dunwoody Rd NE,R,Atlanta,DeKalb,GA,30319,US,US/Eastern,KPDK,2020-08-22 15:53:00,81.0,81.0,67.0,28.93,10.0,SSE,6.0,0.0,Partly Cloudy,False,False,False,False,False,False,False,False,False,False,False,False,False,Day,Day,Day,Day
21,A-22,2,2018-10-03 12:46:52,2018-10-03 13:16:16,35.596561,-78.759743,35.596561,-78.759743,0.0,Accident on US-401 Main St Northbound at NC-42 NC 55 Hwy.,1655.0,N Main St,L,Fuquay Varina,Wake,NC,27526-9021,US,US/Eastern,KHRJ,2018-10-03 12:55:00,84.6,,53.0,30.1,,SW,8.1,,Clear,False,False,False,False,False,False,False,False,False,False,False,False,False,Day,Day,Day,Day
22,A-23,2,2018-02-15 10:59:40,2018-02-15 11:29:21,29.640491,-95.482445,29.640491,-95.482445,0.0,Accident on Chimney Rock Rd at US-90 Alt Main St.,12496.0,Chimney Rock Rd,L,Houston,Harris,TX,77035-5544,US,US/Central,KMCJ,2018-02-15 09:55:00,69.8,,100.0,30.18,4.0,Variable,4.6,,Overcast,False,False,True,False,False,False,True,False,False,False,False,True,False,Day,Day,Day,Day
23,A-24,2,2019-05-17 12:12:20,2019-05-17 13:11:50,37.40691,-79.913933,37.40691,-79.913933,0.0,Left hand shoulder blocked and left lane blocked due to accident on US-220 Northbound at Azalea Rd.,2.0,Azalea Rd,L,Daleville,Botetourt,VA,24083-3527,US,US/Eastern,KROA,2019-05-17 11:54:00,73.0,73.0,66.0,28.68,10.0,W,10.0,0.0,Fair,False,False,False,False,False,False,False,False,False,False,False,False,False,Day,Day,Day,Day
24,A-25,2,2020-06-25 14:48:35,2020-06-25 15:03:35,40.9122,-73.88461,40.9122,-73.88461,0.0,At McLean Ave/Exit 3 - Accident. Left lane blocked.,,Saw Mill River Pkwy S,R,Yonkers,Westchester,NY,10705,US,US/Eastern,KLGA,2020-06-25 14:51:00,88.0,88.0,26.0,29.94,10.0,S,8.0,0.0,Mostly Cloudy,False,False,False,False,False,False,False,False,False,False,False,False,False,Day,Day,Day,Day
25,A-26,3,2018-01-31 07:53:12,2018-01-31 08:37:44,37.994461,-122.069885,37.994461,-122.069885,0.0,Lane blocked due to accident on I-680 Northbound at Exit 53 CA-4.,,I-680 S,R,Martinez,Contra Costa,CA,94553,US,US/Pacific,KCCR,2018-01-31 07:53:00,44.1,42.5,89.0,30.09,10.0,SSE,3.5,,Clear,False,False,False,False,False,False,False,False,False,False,False,False,False,Day,Day,Day,Day
26,A-27,3,2017-09-07 20:37:46,2017-09-07 21:07:21,32.87109,-80.010628,32.87109,-80.010628,0.0,Accident on I-26 Eastbound at Exit 213B Montague Ave.,,I-26 E,R,North Charleston,Charleston,SC,29418,US,US/Eastern,KCHS,2017-09-07 20:56:00,72.0,,68.0,30.07,10.0,ESE,3.5,,Partly Cloudy,False,False,False,False,False,False,False,False,False,False,False,False,False,Night,Night,Night,Day
27,A-28,2,2018-12-21 13:31:29,2018-12-21 14:01:20,30.426109000000004,-97.753906,30.426109000000004,-97.753906,0.0,Accident on Research Blvd Southbound at Pavilion Blvd.,11996.0,Pavilion Blvd,L,Austin,Travis,TX,78759,US,US/Central,KATT,2018-12-21 13:51:00,64.0,,25.0,30.02,10.0,South,5.8,,Clear,False,False,False,False,False,False,False,False,False,False,False,False,False,Day,Day,Day,Day
28,A-29,2,2020-06-15 23:38:00,2020-06-16 00:32:44,33.774159000000004,-118.049783,33.774159000000004,-118.049783,0.0,At CA-22/Garden Grove Fwy - Accident.,,CA-22 E,R,Seal Beach,Orange,CA,90740,US,US/Pacific,KSLI,2020-06-15 21:58:00,66.0,66.0,75.0,29.89,10.0,S,6.0,0.0,Fair,False,False,False,False,False,False,False,False,False,False,False,False,False,Night,Night,Night,Night
29,A-30,2,2019-11-25 07:11:55,2019-11-25 08:42:16,43.22039,-85.500961,43.22039,-85.500961,0.0,Accident on 17 Mile Rd at Stout Ave.,13999.0,Stout Ave NE,L,Cedar Springs,Kent,MI,49319-9555,US,US/Eastern,KGRR,2019-11-25 06:53:00,37.0,32.0,89.0,28.64,8.0,SSW,7.0,0.0,Fair,False,False,False,False,False,False,False,False,False,False,False,False,False,Night,Night,Day,Day
30,A-31,2,2020-12-24 03:08:00,2020-12-24 05:23:25,25.684458,-80.445924,25.684452,-80.446072,0.009,Incident on SW 88TH ST near SW 157TH AVE Drive with caution.,,SW 88th St,R,Miami,Miami-Dade,FL,33196,US,US/Eastern,KTMB,2020-12-24 02:53:00,,,,29.99,10.0,ESE,10.0,0.0,Mostly Cloudy,True,False,False,False,False,False,False,False,False,False,False,True,False,Night,Night,Night,Night
31,A-32,3,2018-11-28 07:47:31,2018-11-28 08:17:21,43.003693,-78.412064,43.003693,-78.412064,0.0,Accident on I-90 Eastbound at Exit 48A.,,I-90 E,R,Corfu,Genesee,NY,14036,US,US/Eastern,KBUF,2018-11-28 07:51:00,30.2,18.9,93.0,29.66,0.8,West,16.1,0.02,Light Snow,False,False,False,False,False,False,False,False,False,False,False,False,False,Day,Day,Day,Day
32,A-33,3,2018-01-25 16:44:30,2018-01-25 17:13:41,39.922646,-86.11689,39.922646,-86.11689,0.0,Very slow traffic and left lane closed due to accident on I-465 Eastbound near Exit 33 Keystone Ave.,,I-465 E,R,Indianapolis,Marion,IN,46240,US,US/Eastern,KEYE,2018-01-25 16:53:00,46.0,40.6,56.0,30.31,10.0,SSE,11.5,,Clear,False,False,False,False,False,False,False,False,False,False,False,False,False,Day,Day,Day,Day
33,A-34,2,2017-10-20 09:23:35,2017-10-20 10:53:09,30.420996,-91.140549,30.420996,-91.140549,0.0,Accident on College Dr at Bennington Ave.,2998.0,College Dr,R,Baton Rouge,East Baton Rouge,LA,70808-3203,US,US/Central,KBTR,2017-10-20 09:53:00,66.9,,81.0,30.17,10.0,ENE,6.9,,Clear,False,False,False,False,False,False,False,False,False,False,False,True,False,Day,Day,Day,Day
34,A-35,2,2018-09-25 12:36:04,2018-09-25 13:05:49,35.239329999999995,-80.856415,35.239329999999995,-80.856415,0.0,Accident on Frazier Ave at 5th St.,1417.0,W 5th St,L,Charlotte,Mecklenburg,NC,28216,US,US/Eastern,KCLT,2018-09-25 12:52:00,77.0,,79.0,30.22,8.0,Calm,,,Mostly Cloudy,False,False,False,False,False,False,False,False,False,False,False,False,False,Day,Day,Day,Day
35,A-36,2,2016-07-08 12:38:55,2016-07-08 19:07:48,35.05473,-80.85037,35.05457,-80.85036,0.011,At Ballantyne Commons Pkwy - Accident.,,Johnston Rd,R,Charlotte,Mecklenburg,NC,28277,US,US/Eastern,KEQY,2016-07-08 12:53:00,91.0,,47.0,29.96,10.0,West,10.4,,Partly Cloudy,False,False,True,False,False,False,False,False,False,False,False,True,False,Day,Day,Day,Day
36,A-37,3,2019-11-12 04:27:39,2019-11-12 06:57:24,34.037781,-117.320625,,,0.0,Accident on I-215 Southbound at Exit 39 Mt Vernon Ave.,,I-215 S,R,Grand Terrace,San Bernardino,CA,92313,US,US/Pacific,KSBD,2019-11-12 04:20:00,52.0,52.0,56.0,28.81,10.0,ENE,5.0,0.0,Fair,False,False,False,False,False,False,False,False,False,False,False,False,False,Night,Night,Night,Night
37,A-38,3,2019-02-28 07:33:04,2019-02-28 08:45:04,37.504467,-77.084549,37.504467,-77.084549,0.0,One lane blocked due to accident on I-64 Westbound at Exit 211 VA-106 Emmaus Church Rd.,,I-64 W,R,Providence Forge,New Kent,VA,23140,US,US/Eastern,KRIC,2019-02-28 07:54:00,44.1,37.7,76.0,30.09,10.0,NNE,12.7,,Scattered Clouds,False,False,False,False,False,False,False,False,False,False,False,False,False,Day,Day,Day,Day
38,A-39,2,2020-05-29 13:22:05,2020-05-29 14:07:05,33.38548,-111.9432,33.38548,-111.9432,0.0,At Mill Ave/Exit 173 - Accident. Hard shoulder blocked.,,Superstition Fwy E,R,Tempe,Maricopa,AZ,85282,US,US/Mountain,KPHX,2020-05-29 13:51:00,106.0,106.0,11.0,28.66,10.0,VAR,7.0,0.0,Fair,False,False,False,False,False,False,False,False,False,False,False,False,False,Day,Day,Day,Day
39,A-40,2,2020-12-22 00:44:00,2020-12-22 04:51:36,43.100197,-77.547005,43.099092,-77.546755,0.077,Incident on CLOVER ST near FRENCH RD Expect delays.,388.0, French Rd,R,Pittsford,Monroe,NY,14534-1153,US,US/Eastern,KROC,2020-12-22 00:54:00,34.0,28.0,100.0,29.05,6.0,SW,7.0,0.0,Wintry Mix,False,False,False,False,False,False,False,False,False,False,False,True,False,Night,Night,Night,Night
40,A-41,4,2020-10-26 00:38:00,2020-10-26 02:41:25,40.428002,-79.92677900000001,40.426058000000005,-79.895801,1.635,Incident on I-376 EB near I-376 Road closed. Take alternate route.,,I-376 E,R,Pittsburgh,Allegheny,PA,15217,US,US/Eastern,KAGC,2020-10-26 00:53:00,45.0,43.0,97.0,28.71,10.0,E,5.0,0.0,Cloudy,False,False,False,False,False,False,False,False,False,False,False,False,False,Night,Night,Night,Night
41,A-42,2,2019-11-13 17:52:00,2019-11-13 19:25:09,38.510303,-121.464525,38.510303,-121.464525,0.0,At 47th Ave - Accident.,6374.0, Martin Luther King Jr Blvd,R,Sacramento,Sacramento,CA,95823,US,US/Pacific,KSAC,2019-11-13 17:53:00,60.0,60.0,67.0,29.92,9.0,SW,3.0,0.0,Cloudy,False,False,False,False,False,False,False,False,False,False,False,False,False,Night,Night,Day,Day
42,A-43,3,2020-11-13 18:30:59,2020-11-13 19:50:21,42.764778,-73.760338,,,1.84000003338,Entry ramp to I-87 Northbound from Loudon Rd Southbound lane blocked due to accident.,,Adirondack Northway N,R,Latham,Albany,NY,12110,US,US/Eastern,KALB,2020-11-13 18:15:00,37.0,37.0,100.0,29.66,9.0,CALM,0.0,0.0,Shallow Fog,False,False,False,False,False,False,False,False,False,False,False,False,False,Night,Night,Night,Night
43,A-44,2,2016-12-29 07:35:34,2016-12-29 08:05:17,28.698406,-82.451477,28.698406,-82.451477,0.0,Accident on County Hwy-480 Oak Park Blvd at County Hwy-491 Lecanto Hwy.,1101.0,W Oak Park Blvd,R,Homosassa,Citrus,FL,34446-6610,US,US/Eastern,KCGC,2016-12-29 07:35:00,60.8,,94.0,30.1,0.2,Calm,,,Fog,False,False,False,False,False,False,False,False,False,False,False,False,False,Day,Day,Day,Day
44,A-45,2,2020-01-06 15:37:19,2020-01-06 16:05:57,32.7584,-97.25763,32.75949,-97.24837,0.5429999999999999,At Brentwood Stair Rd/Exit 19 - Accident.,,I-30 E,R,Fort Worth,Tarrant,TX,76103,US,US/Central,KFWD,2020-01-06 15:53:00,63.0,63.0,34.0,29.36,10.0,NW,10.0,0.0,Fair,False,False,False,False,False,False,False,False,False,False,False,False,False,Day,Day,Day,Day
45,A-46,2,2019-12-15 13:47:00,2019-12-15 14:40:45,40.619857,-122.365844,40.619857,-122.365844,0.0,At CA-299/Exit 680 - Accident.,,I-5 S,R,Redding,Shasta,CA,96003,US,US/Pacific,KRDD,2019-12-15 13:53:00,52.0,52.0,61.0,29.67,10.0,ESE,5.0,0.0,Fair,False,False,False,False,False,False,False,False,False,False,False,False,False,Day,Day,Day,Day
46,A-47,3,2019-03-29 07:43:46,2019-03-29 08:43:11,33.913502,-118.143219,,,0.920000016689,Entry ramp to I-105 Westbound from Lakewood Blvd lane blocked due to accident.,8796.0,Cheyenne St,R,Downey,Los Angeles,CA,90242,US,US/Pacific,KLGB,2019-03-29 07:53:00,55.0,,74.0,30.19,7.0,Calm,,,Clear,False,False,False,False,False,False,False,False,False,False,False,False,False,Day,Day,Day,Day
47,A-48,2,2018-06-05 07:43:07,2018-06-05 08:42:43,44.852409,-93.247139,,,1.09000003338,Accident on MN-77 Southbound between I-494 and Killebrew Dr.,,MN-77 N,R,Minneapolis,Hennepin,MN,55425,US,US/Central,KMSP,2018-06-05 07:53:00,63.0,,58.0,29.86,10.0,East,13.8,,Partly Cloudy,False,False,False,False,False,False,False,False,False,False,False,False,False,Day,Day,Day,Day
48,A-49,2,2018-01-03 18:55:12,2018-01-03 19:24:55,29.690945000000003,-95.417068,29.690945000000003,-95.417068,0.0,Accident on Main St at US-90 Alt Old Spanish Trl.,,Main St,R,Houston,Harris,TX,77054,US,US/Central,KMCJ,2018-01-03 13:55:00,42.8,38.6,27.0,30.35,10.0,Variable,6.9,,Clear,False,False,False,False,False,False,False,False,False,False,False,True,False,Night,Night,Night,Day
49,A-50,2,2020-11-03 21:28:00,2020-11-03 23:29:31,34.03542,-118.274465,34.031220000000005,-118.274582,0.29,Incident on I-110 SB near I-10 Drive with caution.,,Harbor Fwy S,R,Los Angeles,Los Angeles,CA,90007,US,US/Pacific,KCQT,2020-11-03 21:52:00,62.0,62.0,84.0,29.83,4.0,CALM,0.0,0.0,Haze,False,False,False,False,False,False,False,False,False,False,False,False,False,Night,Night,Night,Night
50,A-51,2,2020-11-30 17:40:30,2020-11-30 18:38:00,26.61341,-80.068784,26.594618,-80.069313,1.2990000000000002,Slow traffic on I-95 S from 10th Ave/Exit 64 (I-95) to FL-812/Lantana Rd/Exit 61 (I-95) due to accident.,,I-95 S,R,Lake Worth,Palm Beach,FL,33461,US,US/Eastern,KPBI,2020-11-30 17:53:00,72.0,72.0,91.0,29.86,10.0,W,6.0,0.0,Mostly Cloudy,False,False,False,False,False,False,False,False,False,False,False,False,False,Night,Day,Day,Day
51,A-52,2,2020-05-12 18:27:50,2020-05-12 18:57:09,42.972679,-85.677254,42.972679,-85.677254,0.0,Center right lane blocked due to accident on US-131 Southbound at Exits 85B 86A 86B I-196 Exits 77A 77B.,,US-131 S,R,Grand Rapids,Kent,MI,49504,US,US/Eastern,KGRR,2020-05-12 18:53:00,54.0,54.0,21.0,29.21,10.0,NW,14.0,0.0,Fair,False,False,False,False,False,False,False,False,False,False,False,False,False,Day,Day,Day,Day
52,A-53,2,2020-11-21 13:58:30,2020-11-21 23:43:39,25.685477,-80.414796,25.684322,-80.41662099999999,0.139,Stationary traffic on FL-825 - FL-94 from SW 132nd Pl to SW 90th St due to accident.,13667.0, SW 88th St,L,Miami,Miami-Dade,FL,33183,US,US/Eastern,KTMB,2020-11-21 13:53:00,80.0,80.0,71.0,30.06,10.0,ENE,15.0,0.0,Mostly Cloudy,False,False,False,False,False,False,False,False,False,False,False,False,False,Day,Day,Day,Day
53,A-54,2,2020-10-16 06:56:00,2020-10-16 09:56:10,46.325429,-94.962033,46.325359000000006,-94.988213,1.249,Incident on MN-210 near CR-77 Drive with caution.,47998.0, 193rd Ave,R,Aldrich,Todd,MN,56434-3022,US,US/Central,KSAZ,2020-10-16 06:55:00,36.0,27.0,75.0,28.59,10.0,W,13.0,0.0,Cloudy,False,False,False,False,False,False,False,False,False,False,False,False,False,Night,Night,Day,Day
54,A-55,2,2018-07-03 15:07:15,2018-07-03 15:36:50,39.826813,-84.908905,39.826813,-84.908905,0.0,Accident on 6th St at US-40 National Rd.,522.0,National Rd W,L,Richmond,Wayne,IN,47374-4105,US,US/Eastern,KVES,2018-07-03 15:15:00,86.0,,66.0,30.17,10.0,ESE,6.9,,Mostly Cloudy,False,False,False,False,False,False,False,False,False,False,False,False,False,Day,Day,Day,Day
55,A-56,2,2019-11-13 16:36:00,2019-11-13 17:07:47,38.644922,-121.383059,38.644922,-121.383059,0.0,At Watt Ave - Accident.,,Watt Ave,R,North Highlands,Sacramento,CA,95660,US,US/Pacific,KMCC,2019-11-13 16:45:00,68.0,68.0,40.0,29.82,10.0,SW,3.0,,Cloudy,False,False,False,False,False,False,False,False,False,False,False,False,False,Day,Day,Day,Day
56,A-57,1,2020-06-13 16:50:54,2020-06-13 17:20:54,35.25935,-80.77776,35.25935,-80.77776,0.0,At Eastway Dr - Accident.,,N Tryon St,R,Charlotte,Mecklenburg,NC,28213,US,US/Eastern,KJQF,2020-06-13 16:50:00,81.0,81.0,39.0,29.39,10.0,NE,3.0,0.0,Fair,False,False,False,True,False,False,False,False,False,False,False,False,False,Day,Day,Day,Day
57,A-58,3,2016-05-20 17:23:00,2016-05-20 17:47:00,40.070709,-83.134422,40.070709,-83.134422,0.0,Queueing traffic and left lane blocked due to accident on I-270 Outerbelt Southbound at Tuttle Crossing Blvd.,,Outerbelt S,R,Dublin,Franklin,OH,43016,US,US/Eastern,KOSU,2016-05-20 16:53:00,71.1,,44.0,30.06,10.0,ESE,11.5,,Mostly Cloudy,False,False,False,False,False,False,False,False,False,False,False,False,False,Day,Day,Day,Day
58,A-59,2,2020-03-04 18:27:55,2020-03-04 18:57:31,38.48819,-77.38915,38.49569,-77.38274,0.623,At Russell Rd/Exit 148 - Accident. Right lane blocked.,,I-95 N,R,Stafford,Stafford,VA,22554,US,US/Eastern,KRMN,2020-03-04 18:35:00,58.0,58.0,27.0,29.7,10.0,SSW,5.0,0.0,Partly Cloudy,False,False,False,False,False,False,False,False,False,False,False,False,False,Night,Day,Day,Day
59,A-60,3,2019-09-28 15:15:08,2019-09-28 16:37:27,37.869022,-77.453568,37.869022,-77.453568,0.0,Right hand shoulder closed due to accident on I-95 Northbound at Exit 98 VA-30.,,I-95 N,R,Doswell,Hanover,VA,23047,US,US/Eastern,KOFP,2019-09-28 14:54:00,89.0,89.0,53.0,29.87,10.0,VAR,3.0,0.0,Fair,False,False,False,False,False,False,False,False,False,False,False,False,False,Day,Day,Day,Day
60,A-61,2,2018-11-05 11:50:26,2018-11-05 12:35:07,43.005009,-83.684975,43.005009,-83.684975,0.0,Accident on Grand Traverse St at Church St.,1620.0,S Grand Traverse St,R,Flint,Genesee,MI,48503,US,US/Eastern,KFNT,2018-11-05 11:53:00,50.0,,66.0,29.99,10.0,SSW,10.4,,Overcast,False,False,False,False,False,False,False,False,False,False,False,False,False,Day,Day,Day,Day
61,A-62,2,2018-09-21 04:49:14,2018-09-21 05:18:52,42.967983,-85.683899,42.967983,-85.683899,0.0,Accident on Lexington Ave around Jackson St.,628.0,Jackson St NW,L,Grand Rapids,Kent,MI,49504-5612,US,US/Eastern,KGRR,2018-09-21 04:53:00,79.0,,66.0,29.75,10.0,SSW,17.3,,Clear,False,False,False,False,False,False,False,False,False,False,False,False,False,Night,Night,Night,Night
62,A-63,2,2020-12-16 21:26:41,2020-12-17 00:10:47,42.972506,-73.831128,42.971572,-73.83099,0.065,Crash on NY 67 eastbound at Town of Ballston; Town of Malta Line; CR 82; Eastline Road (Malta) right shoulder closed,504.0, Eastline Rd,L,Ballston Spa,Saratoga,NY,12020-3632,US,US/Eastern,KSCH,2020-12-16 21:48:00,18.0,8.0,73.0,29.83,1.0,NNE,7.0,0.0,Light Snow,False,False,False,False,False,False,False,False,False,False,False,False,False,Night,Night,Night,Night
63,A-64,3,2018-02-09 19:26:49,2018-02-09 20:11:26,34.134365,-117.957603,34.134365,-117.957603,0.0,HOV and #1 lane blocked due to accident on I-210 Westbound at I-605.,,Foothill Fwy W,R,Baldwin Park,Los Angeles,CA,91706,US,US/Pacific,KEMT,2018-02-09 19:54:00,59.0,,82.0,29.95,10.0,SW,5.8,,Clear,False,False,False,False,False,False,False,False,False,False,False,False,False,Night,Night,Night,Night
64,A-65,2,2020-11-30 00:45:26,2020-11-30 02:26:11,40.353738,-74.472659,40.346308,-74.47583900000001,0.54,Crash on New Jersey Turnpike Outer Roadway southbound North of Interchange 8A - NJ 32 (Monroe Twp) 1 Left lane of 3 lanes closed,,New Jersey Tpke S,R,Monroe Township,Middlesex,NJ,08831,US,US/Eastern,KTTN,2020-11-30 00:53:00,42.0,42.0,65.0,29.81,10.0,CALM,0.0,0.0,Fair,False,False,False,False,False,False,False,False,False,False,False,False,False,Night,Night,Night,Night
65,A-66,2,2020-04-08 10:39:16,2020-04-08 11:09:16,32.78758,-96.79058,32.78758,-96.79058,0.0,At N Good Latimer Expy - Accident.,,N Good Latimer Ac Rd W,R,Dallas,Dallas,TX,75204,US,US/Central,KDAL,2020-04-08 10:53:00,78.0,78.0,76.0,29.34,6.0,SW,6.0,0.0,Haze,False,False,True,False,False,False,True,False,False,False,False,True,False,Day,Day,Day,Day
66,A-67,2,2019-04-11 12:20:07,2019-04-11 12:49:16,31.759741,-106.484001,31.759741,-106.484001,0.0,Accident on Campbell St at Myrtle Ave.,121.0,N Campbell St,L,El Paso,El Paso,TX,79901-1439,US,US/Mountain,KELP,2019-04-11 12:40:00,63.0,63.0,14.0,25.95,10.0,W,17.0,,Fair,False,False,False,False,False,False,False,False,False,False,False,True,False,Day,Day,Day,Day
67,A-68,3,2017-04-18 10:21:04,2017-04-18 10:51:04,32.857914,-96.651512,,,0.01,Slow traffic due to accident on I-635 Northbound at Exits 11A 11B Centerville Rd.,,LBJ Fwy N,R,Dallas,Dallas,TX,75228,US,US/Central,KDAL,2017-04-18 09:53:00,70.0,,81.0,30.03,10.0,SSE,6.9,,Mostly Cloudy,False,False,False,False,False,False,False,False,False,False,False,False,False,Day,Day,Day,Day
68,A-69,3,2017-08-14 08:33:36,2017-08-14 09:17:53,30.334675,-81.670998,30.334675,-81.670998,0.0,Accident on I-95 Southbound before Exits 352D 353A 353B 353C US-17.,,FL-228 W,R,Jacksonville,Duval,FL,32204,US,US/Eastern,KNIP,2017-08-14 08:53:00,82.9,,82.0,29.98,10.0,SSW,4.6,,Scattered Clouds,False,False,False,False,False,False,False,False,False,False,False,False,False,Day,Day,Day,Day
69,A-70,2,2019-09-11 13:41:00,2019-09-11 14:53:15,33.940923,-117.249238,33.940923,-117.249238,0.0,At Heacock St - Accident.,,CA-60 E,R,Moreno Valley,Riverside,CA,92553,US,US/Pacific,KRIV,2019-09-11 13:58:00,81.0,81.0,37.0,28.33,10.0,NW,9.0,0.0,Fair,False,False,False,False,False,False,False,False,False,False,False,False,False,Day,Day,Day,Day
70,A-71,2,2018-05-15 22:45:40,2018-05-15 23:15:12,28.981974,-81.98734300000001,28.981974,-81.98734300000001,0.0,Restrictions due to accident on County Hwy-42 at US-441.,9989.0,SE Highway 42,R,Summerfield,Marion,FL,34491-6623,US,US/Eastern,KVVG,2018-05-15 22:53:00,73.0,73.0,90.0,29.91,10.0,SSE,12.0,0.0,Partly Cloudy,False,False,False,False,False,False,False,False,False,False,False,True,False,Night,Night,Night,Night
71,A-72,2,2018-05-04 17:32:37,2018-05-04 23:32:37,33.4737,-112.26643,33.48491,-112.26377,0.79,At Thomas Rd/Exit 3 - Accident.,,Agua Fria Fwy N,R,Phoenix,Maricopa,AZ,85037,US,US/Mountain,KGEU,2018-05-04 17:48:00,93.2,,7.0,29.97,10.0,Calm,,,Clear,False,False,False,False,False,False,False,False,False,False,False,False,False,Day,Day,Day,Day
72,A-73,2,2016-06-09 20:49:59,2016-06-09 21:19:59,32.805706,-117.156586,32.805706,-117.156586,0.0,Accident on 3341 Currant St near Baltic St.,7692.0,Baltic St,L,San Diego,San Diego,CA,92111-4823,US,US/Pacific,KMYF,2016-06-09 20:53:00,64.0,,78.0,29.91,10.0,Calm,,,Overcast,False,False,False,False,False,False,False,False,False,False,False,False,False,Night,Night,Day,Day
73,A-74,2,2017-05-10 15:53:49,2017-05-10 21:53:49,38.864871,-76.846793,38.873396,-76.84354,0.614,At I-495/I-95/Capital Beltway - Accident.,,Capital Beltway N,R,Capitol Heights,Prince George's,MD,20743,US,US/Eastern,KWBC,2017-05-10 15:09:00,,,,,,North,,,,False,False,False,False,False,False,False,False,False,False,False,False,False,Day,Day,Day,Day
74,A-75,2,2016-10-15 15:57:26,2016-10-15 16:41:54,41.755451,-72.650444,,,0.01,Slow traffic and left lane closed due to accident on CT-15 Southbound at US-5.,,Wilbur Cross Hwy N,R,East Hartford,Hartford,CT,06118,US,US/Eastern,KHFD,2016-10-15 15:53:00,62.1,,43.0,30.36,10.0,Calm,,,Clear,False,False,False,False,False,False,False,False,False,False,False,False,False,Day,Day,Day,Day
75,A-76,2,2020-11-17 19:42:00,2020-11-18 02:29:30,37.8945,-122.116587,37.896219,-122.073138,2.372,Slow traffic on CA-24 E from Oak Hill Rd exit [12] to Mt Diablo Blvd exit [15A] due to accident.,,Sierra Vista Way,R,Lafayette,Contra Costa,CA,94549,US,US/Pacific,KCCR,2020-11-17 19:53:00,59.0,59.0,87.0,29.85,10.0,S,9.0,0.0,Light Rain,False,False,False,False,False,False,False,False,False,False,False,False,False,Night,Night,Night,Night
76,A-77,2,2020-09-16 17:30:00,2020-09-16 19:29:02,39.617117,-120.591355,39.626627,-120.575475,1.071,Incident on CA-49 near GOLD LAKE HWY Drive with caution.,34398.0, State Highway 49,R,Calpine,Sierra,CA,96124,US,US/Pacific,KTRK,2020-09-16 17:45:00,75.0,75.0,18.0,24.33,3.0,WSW,12.0,0.0,Smoke,False,False,False,False,False,False,False,False,False,False,False,False,False,Day,Day,Day,Day
77,A-78,2,2019-04-26 05:46:20,2019-04-26 07:45:59,36.577457,-121.908821,36.577457,-121.908821,0.0,Lane blocked due to accident on CA-1 Southbound at Exit 399A 17 Mile Dr.,,CA-1 S,R,Monterey,Monterey,CA,93940,US,US/Pacific,KMRY,2019-04-26 05:54:00,50.0,50.0,89.0,29.74,6.0,CALM,0.0,0.0,Cloudy,False,False,False,False,False,False,False,False,False,False,False,False,False,Night,Night,Day,Day
78,A-79,2,2016-09-14 07:23:15,2016-09-14 07:53:15,33.900101,-84.447914,33.900101,-84.447914,0.0,Accident on Powers Ferry Rd both ways at I-285.,,Interstate North Pkwy SE,R,Atlanta,Cobb,GA,30339,US,US/Eastern,KMGE,2016-09-14 06:58:00,70.3,,91.0,30.14,10.0,Variable,1.2,,Partly Cloudy,False,False,True,False,False,False,False,False,False,False,False,True,False,Day,Day,Day,Day
79,A-80,3,2019-06-30 10:21:30,2019-06-30 10:51:12,42.928024,-83.691177,42.928024,-83.691177,0.0,Accident on I-75 Southbound at Fenton Rd.,,I-75 S,R,Grand Blanc,Genesee,MI,48439,US,US/Eastern,KFNT,2019-06-30 09:53:00,75.0,75.0,53.0,29.23,10.0,NW,5.0,0.0,Fair,False,False,False,False,False,False,False,False,False,False,False,False,False,Day,Day,Day,Day
80,A-81,2,2020-10-08 16:26:17,2020-10-08 16:56:04,39.71571,-84.219994,39.71571,-84.219994,0.0,Accident on Dryden Rd at I-75 Exit 50A.,,I-75 S,R,Dayton,Montgomery,OH,45439,US,US/Eastern,KMGY,2020-10-08 16:53:00,74.0,74.0,30.0,29.09,10.0,CALM,0.0,0.0,Fair,False,False,False,False,False,False,False,False,False,False,False,False,False,Day,Day,Day,Day
81,A-82,2,2017-05-07 15:44:45,2017-05-07 16:11:07,41.773296,-87.993965,,,0.01,Accident on 63rd St at Fairview Ave.,6301.0,Fairview Ave,L,Downers Grove,Dupage,IL,60516-3011,US,US/Central,KLOT,2017-05-07 15:35:00,60.1,,39.0,30.01,10.0,NNW,15.0,,Clear,False,False,False,False,False,False,False,False,False,False,False,True,False,Day,Day,Day,Day
82,A-83,2,2020-06-09 05:31:00,2020-06-09 07:43:49,37.328154,-121.111046,37.328154,-121.111046,0.0,At CR-J18/Stuhr Rd - Accident.,,I-5 S,R,Newman,Stanislaus,CA,95360,US,US/Pacific,KMOD,2020-06-09 05:53:00,54.0,54.0,69.0,30.02,10.0,CALM,0.0,0.0,Fair,False,False,False,False,True,False,False,False,False,False,False,False,False,Night,Day,Day,Day
83,A-84,2,2020-05-07 07:20:00,2020-05-07 08:33:34,44.95075,-93.09934,44.95075,-93.09934,0.0,At I-35E/Exit 241 - Accident.,,I-94 E,R,Saint Paul,Ramsey,MN,55101,US,US/Central,KSTP,2020-05-07 06:53:00,46.0,41.0,51.0,29.33,10.0,NNW,9.0,0.0,Fair,False,False,False,False,False,False,False,False,False,False,False,True,False,Day,Day,Day,Day
84,A-85,2,2018-04-26 02:41:29,2018-04-26 03:26:15,34.007862,-117.52449,34.007862,-117.52449,0.0,Accident on Etiwanda Ave near Thurston Ln.,4438.0,Etiwanda Ave,L,Mira Loma,Riverside,CA,91752-1400,US,US/Pacific,KRAL,2018-04-26 02:53:00,55.0,,83.0,29.96,9.0,Calm,,,Clear,False,False,False,False,False,False,False,False,False,False,False,False,False,Night,Night,Night,Night
85,A-86,2,2020-10-18 10:26:01,2020-10-18 12:02:02,26.429920000000003,-80.090312,26.417095,-80.09020100000001,0.8859999999999999,Incident on I-95 SB near EXIT 50 Left lane blocked.,,I-95 S,R,Delray Beach,Palm Beach,FL,33444,US,US/Eastern,KBCT,2020-10-18 10:53:00,84.0,84.0,72.0,30.03,10.0,E,8.0,0.0,Mostly Cloudy,False,False,False,False,False,False,False,False,False,False,False,False,False,Day,Day,Day,Day
86,A-87,2,2017-12-14 11:49:39,2017-12-14 12:33:50,35.258334999999995,-80.794762,35.258334999999995,-80.794762,0.0,Accident on US-29 Tryon St Eastbound at Sugar Creek Rd.,,W Sugar Creek Rd,R,Charlotte,Mecklenburg,NC,28213,US,US/Eastern,KJQF,2017-12-14 11:55:00,53.6,,33.0,29.89,10.0,WNW,9.2,,Clear,False,False,False,False,False,False,False,False,False,False,False,True,False,Day,Day,Day,Day
87,A-88,3,2020-03-18 22:08:32,2020-03-18 22:23:32,38.80037,-77.11725,38.80037,-77.11725,0.0,At Eisenhower Ave Connector/Exit 174 - Accident. Hard shoulder blocked.,,Capital Beltway W,R,Alexandria,Fairfax County,VA,22310,US,US/Eastern,KDAA,2020-03-18 22:16:00,52.0,52.0,62.0,30.27,10.0,SE,8.0,0.0,Light Rain,False,False,False,False,False,False,False,False,False,False,False,False,False,Night,Night,Night,Night
88,A-89,2,2020-04-29 09:51:00,2020-04-29 10:24:45,35.266849,-119.030632,35.266849,-119.030632,0.0,At CA-99/Campagnoni St - Accident.,2553.0, Taft Hwy,R,Bakersfield,Kern,CA,93313,US,US/Pacific,KBFL,2020-04-29 09:54:00,80.0,80.0,40.0,29.45,10.0,VAR,5.0,0.0,Fair,False,False,False,False,False,False,False,False,False,False,False,False,False,Day,Day,Day,Day
89,A-90,2,2020-11-07 20:20:30,2020-11-07 22:43:24,38.384973,-75.422516,38.384965,-75.42196,0.03,US 50 WEST AT SIXTY FOOT RD,,Ocean Gtwy,R,Pittsville,Wicomico,MD,21850,US,US/Eastern,KSBY,2020-11-07 19:54:00,53.0,53.0,89.0,30.24,10.0,CALM,0.0,0.0,Fair,False,False,False,False,False,False,False,False,False,False,False,True,False,Night,Night,Night,Night
90,A-91,2,2020-12-23 15:01:00,2020-12-24 02:25:30,37.884749,-122.308882,37.833222,-122.294673,3.644,Slow traffic on Eastshore Fwy W - I-80 W - I-580 E from Cleveland Ave (I-80) to I-80/I-580 (Emeryville) (I-80) due to accident.,,Eastshore Fwy W,R,Berkeley,Alameda,CA,94710,US,US/Pacific,KOAK,2020-12-23 14:53:00,60.0,60.0,36.0,30.21,10.0,CALM,0.0,0.0,Mostly Cloudy,False,False,False,False,False,False,False,False,False,False,False,False,False,Day,Day,Day,Day
91,A-92,2,2016-09-06 12:14:00,2016-09-06 18:14:00,44.570877,-92.645325,44.569408,-92.641102,0.231,At Cannon Bottom Rd - Accident.,32998.0, Highway 61 Blvd,L,Red Wing,Goodhue,MN,55066-6006,US,US/Central,KRGK,2016-09-06 12:15:00,71.6,,94.0,29.93,5.0,SSE,5.8,0.04,Rain,False,False,True,True,False,False,False,False,False,True,False,False,False,Day,Day,Day,Day
92,A-93,2,2019-09-17 06:21:57,2019-09-17 08:09:21,40.703041,-73.566048,40.703041,-73.566048,0.0,Accident on Prospect Ave at Bellmore Ave.,613.0,Bellmore Ave,L,East Meadow,Nassau,NY,11554-4708,US,US/Eastern,KFRG,2019-09-17 05:53:00,57.0,57.0,77.0,29.95,10.0,NNE,7.0,0.0,Fair,False,False,False,False,False,False,False,False,False,False,False,True,False,Night,Day,Day,Day
93,A-94,2,2017-09-29 08:47:54,2017-09-29 09:17:26,43.077332,-77.546585,43.077332,-77.546585,0.0,Serious accident on NY-65 Clover St at County Hwy-37 Stone Rd.,3001.0,Clover St,R,Pittsford,Monroe,NY,14534-2815,US,US/Eastern,KROC,2017-09-29 08:54:00,52.0,,80.0,30.1,10.0,Calm,,,Scattered Clouds,False,False,False,False,False,False,False,False,False,False,False,True,False,Day,Day,Day,Day
94,A-95,2,2018-03-16 14:59:34,2018-03-16 15:29:10,29.702297,-95.359451,29.702297,-95.359451,0.0,Accident on US-90 Alt Old Spanish Trl at Scott St.,,Scott St,R,Houston,Harris,TX,77021,US,US/Central,KMCJ,2018-03-16 14:55:00,80.6,,65.0,29.88,10.0,Variable,5.8,,Mostly Cloudy,False,False,False,False,False,False,False,False,False,False,False,True,False,Day,Day,Day,Day
95,A-96,2,2016-12-30 06:54:29,2016-12-30 12:54:29,41.80175,-88.16736999999999,41.80161,-88.16736999999999,0.01,At CR-53/Diehl Rd - Accident.,,Winfield Rd,R,Warrenville,DuPage,IL,60555,US,US/Central,KDPA,2016-12-30 06:52:00,23.0,11.7,72.0,30.09,10.0,West,11.5,,Clear,False,False,True,False,False,False,False,False,False,False,False,True,False,Night,Day,Day,Day
96,A-97,2,2018-01-18 06:55:12,2018-01-18 07:24:41,40.969318,-73.77409399999999,40.969318,-73.77409399999999,0.0,Right hand shoulder blocked due to accident on Hutchinson River Pkwy Northbound at Exit 20 NY-125 Weaver St.,,Weaver St,R,Scarsdale,Westchester,NY,10583,US,US/Eastern,KHPN,2018-01-18 06:56:00,15.1,7.7,70.0,30.07,10.0,West,4.6,,Partly Cloudy,False,False,False,False,False,False,False,False,False,False,False,False,False,Night,Day,Day,Day
97,A-98,2,2019-04-04 19:38:42,2019-04-04 20:08:24,35.07973,-90.06555,35.08006,-90.06306,0.143,At Horn Lake Rd/Exit 8 - Accident. Right lane blocked.,,I-55 S,R,Memphis,Shelby,TN,38109,US,US/Central,KMEM,2019-04-04 19:45:00,56.0,56.0,93.0,29.64,10.0,CALM,0.0,0.0,Mostly Cloudy,False,False,False,False,True,False,False,False,False,False,False,False,False,Night,Day,Day,Day
98,A-99,2,2019-10-21 13:23:13,2019-10-21 14:32:57,42.229309,-88.144798,,,0.0,Lane blocked due to accident on IL-59 Southbound at CR-V49 Kelsey Rd.,25225.0,N IL Route 59,L,Barrington,Lake,IL,60010,US,US/Central,KPWK,2019-10-21 13:52:00,65.0,65.0,75.0,28.72,10.0,S,22.0,0.0,Cloudy / Windy,False,False,False,False,False,False,False,False,False,False,False,True,False,Day,Day,Day,Day
99,A-100,2,2017-03-01 06:36:35,2017-03-01 07:06:25,40.673615000000005,-73.857185,,,0.01,Accident on Conduit Ave at 79th St.,7900.0,N Conduit Ave,R,Howard Beach,Queens,NY,11414,US,US/Eastern,KJFK,2017-03-01 06:43:00,48.9,,100.0,29.81,0.2,SSE,6.9,,Overcast,False,False,False,False,False,False,False,False,False,False,False,False,False,Day,Day,Day,Day
100,A-101,3,2019-04-15 08:16:46,2019-04-15 09:30:00,34.247787,-118.42585,34.247787,-118.42585,0.0,Right hand shoulder blocked due to accident on I-5 Southbound near Exit 155A Terra Bella St.,,Golden State Fwy S,R,Pacoima,Los Angeles,CA,91331,US,US/Pacific,KWHP,2019-04-15 08:00:00,55.0,55.0,41.0,28.83,10.0,CALM,0.0,,Fair,False,False,False,False,False,False,False,False,False,False,False,False,False,Day,Day,Day,Day
101,A-102,3,2018-12-15 07:15:13,2018-12-15 07:44:53,37.010113,-94.548073,37.010113,-94.548073,0.0,Left lane closed due to accident on I-44 Eastbound after Exit 4 MO-43.,,I-44 W,R,Joplin,Newton,MO,64804,US,US/Central,KJLN,2018-12-15 06:53:00,30.0,20.5,69.0,30.16,10.0,North,11.5,,Clear,False,False,False,False,False,False,False,False,False,False,False,False,False,Night,Day,Day,Day
102,A-103,2,2020-06-27 20:00:00,2020-06-27 20:33:54,39.63915,-75.09758000000001,39.64095,-75.09874,0.139,At CR-553/Exit 45 - Fuel spillage accident. Obstruction on roadway {something that does block the road or part of it}.,,NJ-55 N,R,Clayton,Gloucester,NJ,08312,US,US/Eastern,KPHL,2020-06-27 19:54:00,86.0,86.0,51.0,29.72,10.0,WSW,18.0,0.0,Mostly Cloudy,False,False,False,False,True,False,False,False,False,False,False,False,False,Day,Day,Day,Day
103,A-104,1,2020-04-13 18:48:05,2020-04-13 19:23:03,45.52641,-122.47999,45.52641,-122.47999,0.0,At NE 162nd Ave - Accident.,17820.0, NE Glisan St,R,Portland,Multnomah,OR,97230-6506,US,US/Pacific,KTTD,2020-04-13 18:53:00,66.0,66.0,16.0,30.29,10.0,NW,8.0,0.0,Fair,False,False,False,False,False,False,False,False,False,False,False,False,False,Day,Day,Day,Day
104,A-105,2,2020-11-01 04:31:00,2020-11-01 06:52:41,33.043757,-111.987923,33.043711,-111.99618999999998,0.479,Incident on W BOWLIN RD near N WHITE Expect delays.,18187.0, N High Lonesome Dr,R,Maricopa,Pinal,AZ,85138,US,US/Mountain,KCGZ,2020-11-01 04:56:00,62.0,62.0,31.0,28.57,10.0,ENE,6.0,0.0,Fair,False,False,False,False,False,False,False,False,False,False,False,False,False,Night,Night,Night,Night
105,A-106,2,2020-04-20 16:36:18,2020-04-20 17:22:21,32.295361,-111.011978,32.295361,-111.011978,0.0,Accident on La Cholla Blvd at Noreen St.,4830.0,N La Cholla Blvd,R,Tucson,Pima,AZ,85705-1263,US,US/Mountain,KDMA,2020-04-20 16:58:00,83.0,83.0,9.0,27.1,10.0,NNW,8.0,0.0,Fair,False,False,False,False,False,False,False,False,False,False,False,False,False,Day,Day,Day,Day
106,A-107,2,2017-08-22 10:53:29,2017-08-22 11:23:16,41.256569,-95.940956,41.256569,-95.940956,0.0,Accident on 19th St Eastbound at Harney St.,373.0,S 19th St,L,Omaha,Douglas,NE,68102,US,US/Central,KOMA,2017-08-22 10:52:00,71.1,,59.0,30.16,10.0,North,11.5,,Partly Cloudy,True,False,True,False,False,False,False,False,True,False,False,True,False,Day,Day,Day,Day
107,A-108,3,2016-05-22 05:32:14,2016-05-22 11:32:14,40.68459,-73.64304,40.68269,-73.66566999999999,1.193,Between Eagle Ave/Exit 18 and Hempstead Ave/Exit 17 - Accident.,,Southern State Pkwy W,R,West Hempstead,Nassau,NY,11552,US,US/Eastern,KJFK,2016-05-22 05:51:00,54.0,,86.0,29.82,10.0,North,9.2,0.04,Light Rain,False,False,False,False,True,False,False,False,False,False,False,False,False,Day,Day,Day,Day
108,A-109,2,2016-07-25 09:12:43,2016-07-25 09:58:41,29.849245,-95.411613,29.849245,-95.411613,0.0,Accident on TX-261 Spur Shepherd Dr at Montgomery Rd.,,W Montgomery Rd,R,Houston,Harris,TX,77091,US,US/Central,KMCJ,2016-07-25 09:15:00,87.8,,66.0,29.94,10.0,Calm,,,Mostly Cloudy,False,False,False,False,False,False,False,False,False,False,False,True,False,Day,Day,Day,Day
109,A-110,2,2020-04-29 21:24:00,2020-04-29 23:17:40,39.301532,-121.671249,39.301532,-121.671249,0.0,At Ramsdell Dr - Accident.,3098.0, Riviera Rd,R,Live Oak,Sutter,CA,95953-9770,US,US/Pacific,KMYV,2020-04-29 21:53:00,68.0,68.0,65.0,29.88,10.0,SSE,8.0,0.0,Fair,False,False,False,False,False,False,False,False,False,False,False,False,False,Night,Night,Night,Day
110,A-111,2,2020-03-17 14:27:00,2020-03-17 15:38:57,34.320664,-118.495922,34.320664,-118.495922,0.0,At I-210 - Accident.,,Foothill Fwy E,R,Sylmar,Los Angeles,CA,91342,US,US/Pacific,KWHP,2020-03-17 13:55:00,50.0,50.0,66.0,28.94,10.0,N,6.0,,Mostly Cloudy,False,False,False,False,True,False,False,False,False,False,False,False,False,Day,Day,Day,Day
111,A-112,3,2017-11-09 08:21:13,2017-11-09 08:50:39,35.059368,-85.131248,35.059368,-85.131248,0.0,Left lane blocked due to accident on I-75 Northbound at US-64 Bonny Oaks Dr.,,Bonny Oaks Dr,R,Chattanooga,Hamilton,TN,37421,US,US/Eastern,KCHA,2017-11-09 07:53:00,50.0,,93.0,30.14,5.0,North,5.8,0.0,Light Drizzle,False,False,False,False,False,False,False,False,False,False,False,False,False,Day,Day,Day,Day
112,A-113,2,2016-04-01 00:28:57,2016-04-01 01:13:57,34.153442,-118.6521,34.153442,-118.6521,0.0,Accident on US-101 Westbound at Exit 30 Calabasas Rd. Approach with care.,,US-101 N,R,Calabasas,Los Angeles,CA,91302,US,US/Pacific,KVNY,2016-04-01 00:51:00,55.9,,72.0,30.04,10.0,ESE,4.6,,Clear,False,False,False,False,False,False,False,False,False,False,False,False,False,Night,Night,Night,Night
113,A-114,3,2020-06-14 20:38:00,2020-06-14 21:07:50,39.5652,-104.87226,39.5652,-104.87226,0.0,At County Line Rd/Exit 195 - Accident.,,I-25 S,R,Englewood,Douglas,CO,80112,US,US/Mountain,KAPA,2020-06-14 20:53:00,79.0,79.0,18.0,24.11,10.0,NW,9.0,0.0,Mostly Cloudy,False,False,False,False,False,False,False,False,False,False,False,False,False,Night,Day,Day,Day
114,A-115,2,2020-02-09 07:43:00,2020-02-09 10:17:01,44.88001,-93.14115,44.88001,-93.14115,0.0,Ramp to I-35E Southbound - Vehicle spun around.,,I-35E S,R,Saint Paul,Dakota,MN,55120,US,US/Central,KMSP,2020-02-09 07:34:00,17.0,6.0,84.0,29.16,0.25,NNE,9.0,0.04,Heavy Snow,False,False,False,False,False,False,False,False,False,False,False,False,False,Day,Day,Day,Day
115,A-116,3,2019-05-25 16:20:12,2019-05-25 16:46:40,40.931221,-73.855896,40.931221,-73.855896,0.0,Right lane blocked due to accident on Cross County Pkwy Eastbound at Exits 4N 5-4N-S 6 Bronx River Pkwy.,,Cross County Pkwy E,R,Yonkers,Westchester,NY,10704,US,US/Eastern,KLGA,2019-05-25 15:51:00,68.0,68.0,42.0,30.13,10.0,SSE,17.0,0.0,Mostly Cloudy,False,False,False,False,True,False,False,False,False,False,False,False,False,Day,Day,Day,Day
116,A-117,2,2018-09-17 10:59:25,2018-09-17 11:29:01,43.875922,-95.113021,43.876835,-95.114782,0.108,Between US-71 (East) and Windom - Accident.,,Highway 71 N,R,Windom,Cottonwood,MN,56101,US,US/Central,KMWM,2018-09-17 10:55:00,69.8,,73.0,29.94,10.0,NE,4.6,,Scattered Clouds,False,False,False,False,False,False,False,False,False,False,False,False,False,Day,Day,Day,Day
117,A-118,2,2019-10-02 09:38:00,2019-10-02 11:10:42,38.000336,-121.260314,38.000336,-121.260314,0.0,At N Wilson Way - Accident.,4396.0, Newton Rd,R,Stockton,San Joaquin,CA,95205-2443,US,US/Pacific,KSCK,2019-10-02 09:55:00,62.0,62.0,44.0,30.02,10.0,VAR,3.0,0.0,Fair,False,False,True,False,False,False,True,False,False,False,False,False,False,Day,Day,Day,Day
118,A-119,2,2017-12-05 06:06:23,2017-12-05 12:06:23,38.79095,-121.29229,38.79667,-121.29794,0.499,At Blue Oaks Blvd - Overturned vehicle. Left lane blocked.,,CA-65 N,R,Roseville,Placer,CA,95678,US,US/Pacific,KMCC,2017-12-05 06:10:00,39.2,34.2,61.0,30.27,10.0,NNW,6.9,,Clear,False,False,False,False,False,False,False,False,False,False,False,False,False,Night,Night,Day,Day
119,A-120,3,2020-04-17 15:11:38,2020-04-17 16:11:03,42.495152,-82.919205,42.495152,-82.919205,0.0,Lane blocked due to accident on I-94 Eastbound at Exit 229 I-696 Exit 28.,,E 11 Mile Rd,R,Roseville,Macomb,MI,48066,US,US/Eastern,KDET,2020-04-17 15:05:00,33.0,27.0,89.0,29.33,0.75,ESE,7.0,0.0,Light Snow,False,False,False,False,False,False,False,False,False,False,False,False,False,Day,Day,Day,Day
120,A-121,2,2019-08-29 07:26:00,2019-08-29 08:21:32,37.74219,-121.525634,37.74219,-121.525634,0.0,At Mountain House Pky - Accident.,,I-205 W,R,Tracy,San Joaquin,CA,95304,US,US/Pacific,KSCK,2019-08-29 07:55:00,69.0,69.0,68.0,29.96,10.0,W,12.0,0.0,Fair,False,False,False,False,True,False,False,False,False,False,False,False,False,Day,Day,Day,Day
121,A-122,2,2020-01-22 10:52:00,2020-01-22 11:24:53,34.06514,-118.00026,34.06514,-118.00026,0.0,At I-10/San Bernardino Fwy - Accident.,,I-605 S,R,Baldwin Park,Los Angeles,CA,91706,US,US/Pacific,KEMT,2020-01-22 10:53:00,61.0,61.0,64.0,30.09,10.0,S,3.0,0.0,Mostly Cloudy,False,False,False,False,False,False,False,False,False,False,False,False,False,Day,Day,Day,Day
122,A-123,2,2019-06-19 17:55:06,2019-06-19 18:24:54,33.713829,-112.285217,33.713829,-112.285217,0.0,Accident on 107th Ave at Happy Valley Pkwy.,,N 107th Ave,R,Peoria,Maricopa,AZ,85383,US,US/Mountain,KDVT,2019-06-19 17:53:00,98.0,98.0,8.0,28.19,10.0,VAR,6.0,0.0,Fair,False,False,True,False,False,False,False,False,False,False,False,True,False,Day,Day,Day,Day
123,A-124,3,2018-09-21 07:27:03,2018-09-21 08:11:50,35.459309000000005,-97.491463,35.459309000000005,-97.491463,0.0,Accident on I-35 Northbound at I-235.,,US-62 E,R,Oklahoma City,Oklahoma,OK,73117,US,US/Central,KTIK,2018-09-21 07:56:00,71.2,,86.0,29.96,10.0,ENE,5.8,,Overcast,False,False,False,False,True,False,False,False,False,False,False,False,False,Day,Day,Day,Day
124,A-125,3,2016-10-21 06:21:04,2016-10-21 12:21:04,29.70736,-95.25416,29.70758,-95.25552,0.083,At Goodyear Dr - Accident.,,La Porte Fwy W,R,Houston,Harris,TX,77017,US,US/Central,KHOU,2016-10-21 05:53:00,61.0,,70.0,30.19,10.0,North,15.0,,Partly Cloudy,False,False,False,False,False,False,False,False,False,False,False,False,False,Night,Night,Night,Day
125,A-126,2,2020-02-17 11:59:20,2020-02-17 12:28:01,33.95966,-81.22747,33.9534,-81.24197,0.937,Between SC-6/Exit 55 and Road 204/Exit 51 - Accident.,,I-20 W,R,Lexington,Lexington,SC,29073,US,US/Eastern,KCAE,2020-02-17 11:56:00,51.0,51.0,80.0,29.92,10.0,CALM,0.0,0.0,Mostly Cloudy,False,False,False,False,False,False,False,False,False,False,False,False,False,Day,Day,Day,Day
126,A-127,2,2020-11-17 03:48:00,2020-11-17 06:33:00,35.963348,-79.018662,35.969969,-79.059249,2.315,Near Chapel Hill / Mile Marker 266 Heading West. The right lane is closed near Exit 266 (NC-86).,,I-40 W,R,Durham,Orange,NC,27707,US,US/Eastern,KIGX,,,,,,,,,,,False,False,False,False,False,False,False,False,False,False,False,False,False,Night,Night,Night,Night
127,A-128,2,2018-05-31 16:12:53,2018-05-31 16:42:42,33.923618,-98.503296,33.923618,-98.503296,0.0,Accident on Lamar St at 9th St.,1201.0,N 9th St,L,Wichita Falls,Wichita,TX,76306-6723,US,US/Central,KSPS,2018-05-31 15:52:00,98.1,,40.0,29.67,10.0,South,15.0,,Clear,False,False,False,False,False,False,False,False,False,False,False,False,False,Day,Day,Day,Day
128,A-129,3,2016-11-01 09:09:15,2016-11-01 09:43:00,34.052890999999995,-117.548149,,,0.01,Shoulder blocked on exit ramp due to accident on I-15 Southbound at Exit 108 Jurupa St.,,Ontario Fwy S,R,Ontario,San Bernardino,CA,91761,US,US/Pacific,KONT,2016-11-01 08:53:00,55.0,,83.0,30.04,10.0,Calm,,,Mostly Cloudy,False,False,False,False,True,False,False,False,False,False,False,False,False,Day,Day,Day,Day
129,A-130,2,2019-09-05 05:18:12,2019-09-05 06:32:56,34.063072,-118.249306,34.063072,-118.249306,0.0,Right hand shoulder blocked due to accident on US-101 Southbound at Exits 3 3A 3B CA-110.,,Hollywood Fwy S,R,Los Angeles,Los Angeles,CA,90012,US,US/Pacific,KCQT,2019-09-05 04:52:00,74.0,74.0,68.0,29.66,10.0,CALM,0.0,0.0,Partly Cloudy,False,False,False,False,False,False,False,False,False,False,False,False,False,Night,Night,Night,Day
130,A-131,2,2017-01-10 08:34:39,2017-01-10 14:42:04,40.820934,-78.01289799999999,40.822368,-77.945541,3.523,At Grays Woods Blvd/Exit 68 - Accident. Lane blocked.,,Mount Nittany Expy E,R,Port Matilda,Centre,PA,16870,US,US/Eastern,KUNV,2017-01-10 08:25:00,17.6,,86.0,30.41,0.2,Calm,,,Snow,False,False,False,False,False,False,False,False,False,False,False,False,False,Day,Day,Day,Day
131,A-132,2,2018-08-17 11:31:06,2018-08-17 12:00:46,40.69675,-111.94854,40.69675,-111.94854,0.0,At I-215 - Accident. Right lane blocked.,,W 3500 S,R,West Valley City,Salt Lake,UT,84119,US,US/Mountain,KU42,2018-08-17 11:35:00,84.6,,32.0,30.24,10.0,SE,8.1,,Clear,False,False,False,False,False,False,False,False,False,False,False,False,False,Day,Day,Day,Day
132,A-133,2,2018-09-01 15:50:41,2018-09-01 16:22:00,35.590382,-78.63269,35.590382,-78.63269,0.0,Accident on NC-42 at Pinnacle Ridge Rd.,4522.0,NC Highway 42,R,Raleigh,Wake,NC,27603,US,US/Eastern,KRDU,2018-09-01 15:51:00,78.1,,76.0,30.18,10.0,NE,18.4,,Thunderstorm,False,False,False,False,False,False,False,False,False,False,False,False,False,Day,Day,Day,Day
133,A-134,3,2020-06-02 14:13:30,2020-06-02 15:13:30,43.18084,-77.59918,43.18084,-77.59918,0.0,At Clifford Ave - Serious accident.,873.0, Hudson Ave,L,Rochester,Monroe,NY,14621-3741,US,US/Eastern,KROC,2020-06-02 13:54:00,67.0,67.0,54.0,29.26,10.0,S,12.0,0.0,Cloudy,False,False,False,False,False,False,False,False,False,False,False,True,False,Day,Day,Day,Day
134,A-135,2,2019-12-24 14:13:00,2019-12-24 15:06:27,37.756392,-122.148785,37.756392,-122.148785,0.0,At 98th Ave/Golf Links Rd - Accident.,,I-580 E,R,Oakland,Alameda,CA,94605,US,US/Pacific,KOAK,2019-12-24 13:53:00,56.0,56.0,53.0,29.9,10.0,W,15.0,0.0,Cloudy,False,False,False,False,True,False,False,False,False,False,False,False,False,Day,Day,Day,Day
135,A-136,2,2017-10-30 09:36:16,2017-10-30 10:06:02,25.942696,-80.20109599999999,25.942696,-80.20109599999999,0.0,Accident on FL-860 183rd St at Miami Ave.,1.0,NE 183rd St,R,Miami,Miami-Dade,FL,33179-4429,US,US/Eastern,KHWO,2017-10-30 09:53:00,62.1,,38.0,30.09,10.0,NNW,12.7,,Clear,False,False,False,False,False,False,False,False,False,False,False,True,False,Day,Day,Day,Day
136,A-137,3,2018-08-02 13:34:50,2018-08-02 14:04:30,38.799801,-77.598946,38.799801,-77.598946,0.0,Two lanes blocked and left hand shoulder blocked due to accident on I-66 Eastbound at Exits 43A 43A-B 43B US-29 Lee Hwy.,,Lee Hwy,R,Gainesville,Prince William,VA,20155,US,US/Eastern,KHEF,2018-08-02 13:31:00,75.2,,94.0,30.11,2.5,WNW,5.8,,Overcast,False,False,False,False,False,False,False,False,False,False,False,False,False,Day,Day,Day,Day
137,A-138,2,2020-10-03 12:08:00,2020-10-03 22:06:55,40.070331,-75.151593,40.072052,-75.154613,0.1989999999999999,Queuing traffic from PA-611/Old York Rd (W Cheltenham Ave) to PA-309/E Upsal St/Ogontz Ave (W Cheltenham Ave) due to accident.,2119.0, W Cheltenham Ave,R,Elkins Park,Montgomery,PA,19027-1030,US,US/Eastern,KPNE,2020-10-03 11:54:00,63.0,63.0,41.0,30.11,10.0,CALM,0.0,0.0,Fair,False,False,False,False,False,False,False,False,False,False,False,False,False,Day,Day,Day,Day
138,A-139,2,2019-04-18 23:44:10,2019-04-19 00:13:53,39.78436,-105.08863999999998,39.78432,-105.11468,1.383,Between CO-121/Wadsworth Blvd/Exit 269 and Kipling St/Exit 267 - Accident. Left lane blocked.,,I-70 W,R,Arvada,Jefferson,CO,80002,US,US/Mountain,KBJC,2019-04-18 23:36:00,50.0,50.0,35.0,24.57,10.0,E,5.0,0.0,Mostly Cloudy,False,False,False,False,False,False,False,False,False,False,False,False,False,Night,Night,Night,Night
139,A-140,2,2019-04-14 10:00:12,2019-04-14 11:30:41,45.664909,-122.434761,45.664909,-122.434761,0.0,Accident on WA-500 58th St both ways at 232nd Ave.,,NE 232nd Ave,R,Vancouver,Clark,WA,98682,US,US/Pacific,KPDX,2019-04-14 09:53:00,47.0,47.0,74.0,30.0,10.0,CALM,0.0,0.0,Cloudy,False,False,False,False,False,False,False,False,False,False,False,False,False,Day,Day,Day,Day
140,A-141,2,2020-11-18 20:54:00,2020-11-18 22:33:05,34.005801,-118.176035,34.00562,-118.175514,0.032,Incident on E WASHINGTON BLVD near AYERS AVE Drive with caution.,2401.0, Ayers Ave,R,Commerce,Los Angeles,CA,90040-1036,US,US/Pacific,KCQT,2020-11-18 20:52:00,59.0,59.0,83.0,29.9,10.0,CALM,0.0,0.0,Fair,False,False,False,False,False,False,False,False,False,False,False,True,False,Night,Night,Night,Night
141,A-142,2,2017-01-11 11:38:49,2017-01-11 12:08:20,39.966751,-76.705742,39.966751,-76.705742,0.0,Multi-vehicle accident on Albemarle St between Edison St and Poplar St.,966.0,E Poplar St,R,York,York,PA,17403-1825,US,US/Eastern,KTHV,2017-01-11 11:53:00,46.9,,68.0,30.31,10.0,Calm,,,Clear,False,False,False,False,False,False,False,False,False,False,False,False,False,Day,Day,Day,Day
142,A-143,2,2019-08-15 12:43:53,2019-08-15 14:50:50,34.753899,-86.740997,34.753899,-86.740997,0.0,Accident on US-72 Westbound at Hughes Rd.,,Hughes Rd,R,Madison,Madison,AL,35758,US,US/Central,KHUA,2019-08-15 12:58:00,89.0,89.0,45.0,29.26,10.0,NNW,7.0,0.0,Fair,False,False,False,True,False,False,False,False,False,False,False,True,False,Day,Day,Day,Day
143,A-144,3,2017-01-17 20:49:03,2017-01-17 21:33:29,33.884048,-118.351929,,,0.01,Gore point obstructed due to accident on I-405 Southbound at Exit 42A Hawthorne Blvd.,,San Diego Fwy S,R,Lawndale,Los Angeles,CA,90260,US,US/Pacific,KHHR,2017-01-17 20:53:00,55.0,,89.0,30.14,10.0,Calm,,,Clear,False,False,False,False,False,False,False,False,False,False,False,False,False,Night,Night,Night,Night
144,A-145,2,2020-12-27 05:22:00,2020-12-27 07:51:31,38.454845,-120.867759,38.454234,-120.867389,0.047,NB 5 MILES JNO OF PLYM. VEH IN DITCH / BAD CELL CONN / LOST CALLER,,State Highway 16,R,Plymouth,Amador,CA,95669,US,US/Pacific,KPVF,2020-12-27 05:15:00,41.0,37.0,49.0,27.31,10.0,ESE,6.0,0.0,Fair,False,False,False,False,False,False,False,False,False,False,False,True,False,Night,Night,Night,Night
145,A-146,2,2016-08-05 12:51:28,2016-08-05 18:51:28,34.04821,-118.26597,34.05025,-118.26262,0.238,At 8th St/Exit 22 - Accident.,,CA-110 N,R,Los Angeles,Los Angeles,CA,90017,US,US/Pacific,KCQT,2016-08-05 12:47:00,79.0,,60.0,29.87,10.0,North,,,Clear,False,False,False,False,False,False,False,False,False,False,False,False,False,Day,Day,Day,Day
146,A-147,4,2016-08-20 01:31:43,2016-08-20 07:31:43,40.64525,-75.42576,40.63036,-75.47179,2.624,Closed between PA-987/Airport Rd and Fullerton Ave - Road closed due to accident.,,US-22 E,R,Bethlehem,Lehigh,PA,18018,US,US/Eastern,KABE,2016-08-20 01:51:00,69.1,,84.0,29.94,10.0,Calm,,,Clear,False,False,False,False,True,False,False,False,False,False,False,False,False,Night,Night,Night,Night
147,A-148,2,2016-09-09 05:18:12,2016-09-09 11:18:12,39.01001,-122.05225,39.013157,-122.055101,0.266,At Hillgate Rd - Accident.,,I-5 N,R,Arbuckle,Colusa,CA,95912,US,US/Pacific,KMYV,2016-09-09 04:53:00,61.0,,75.0,29.97,10.0,Calm,,,Clear,False,False,False,False,True,False,False,False,False,False,False,False,False,Night,Night,Night,Day
148,A-149,2,2018-08-30 16:01:00,2018-08-30 16:30:49,32.3116,-80.979507,32.3116,-80.979507,0.0,Accident on SC-141 Argent Blvd at Drivers Way.,100.0,Argent Blvd,L,Hardeeville,Jasper,SC,29927-4316,US,US/Eastern,KSAV,2018-08-30 15:53:00,88.0,,61.0,30.08,10.0,East,12.7,,Mostly Cloudy,False,False,False,False,False,False,False,False,False,False,False,False,False,Day,Day,Day,Day
149,A-150,2,2018-12-28 06:00:50,2018-12-28 06:30:37,36.171581,-86.869011,36.171581,-86.869011,0.0,Accident on Centennial Blvd at TN-155 Briley Pkwy.,,Briley Pkwy,R,Nashville,Davidson,TN,37209,US,US/Central,KBNA,2018-12-28 05:53:00,61.0,,81.0,29.86,10.0,SW,5.8,,Overcast,False,False,False,False,False,False,False,False,False,False,False,False,False,Night,Night,Day,Day
150,A-151,3,2020-03-21 12:34:47,2020-03-21 12:49:47,34.14112,-118.17972,34.14112,-118.17972,0.0,At Colorado Blvd/Figueroa St - Accident. Center lane blocked.,,CA-134 E,R,Pasadena,Los Angeles,CA,91105,US,US/Pacific,KMWS,,,,,,,,,,,False,False,False,False,True,False,False,False,False,False,False,False,False,Day,Day,Day,Day
151,A-152,2,2020-10-28 03:17:02,2020-10-28 04:31:48,33.92638,-118.378448,33.92638,-118.378448,0.0,Lane blocked due to accident on 118th Pl both ways near Aviation Blvd.,5598.0,W 118th Pl,L,Inglewood,Los Angeles,CA,90304-1032,US,US/Pacific,KHHR,2020-10-28 02:53:00,58.0,58.0,53.0,29.99,10.0,CALM,0.0,0.0,Fair,False,False,False,False,False,False,False,False,False,False,False,False,False,Night,Night,Night,Night
152,A-153,3,2017-03-14 22:51:49,2017-03-14 23:21:30,30.424627,-97.671585,,,0.01,Accident on I-35 Service Rd Northbound at Exits 246 247 Howard Ln.,,I-35 S,R,Pflugerville,Travis,TX,78660,US,US/Central,KEDC,2017-03-14 22:55:00,55.4,,63.0,30.21,10.0,ESE,3.5,,Clear,False,False,False,False,False,False,False,False,False,False,False,False,False,Night,Night,Night,Night
153,A-154,2,2020-01-07 07:23:00,2020-01-07 10:02:38,34.071883,-117.872309,34.071883,-117.872309,0.0,At Grand Ave/Exit 38A - Accident.,,N Grand Ave,R,West Covina,Los Angeles,CA,91791,US,US/Pacific,KPOC,2020-01-07 07:47:00,45.0,42.0,53.0,29.1,10.0,VAR,5.0,,Fair,False,False,False,False,False,False,False,False,False,False,False,False,False,Day,Day,Day,Day
154,A-155,2,2020-11-04 06:24:33,2020-11-04 07:11:48,44.347912,-88.737572,,,1.92999994755,Lane blocked due to accident on US-45 Northbound between CR-TT and CR-D.,,N3098 US Highway 45,L,New London,Outagamie,WI,54961,US,US/Central,KATW,2020-11-04 06:45:00,45.0,41.0,66.0,28.92,10.0,SSW,7.0,0.0,Fair,False,False,False,False,False,False,False,False,False,False,False,False,False,Night,Day,Day,Day
155,A-156,2,2020-05-17 16:45:17,2020-05-17 18:31:09,42.430195,-71.10301199999999,42.430195,-71.10301199999999,0.0,Accident on I-93 Northbound at Exit 33 MA-28 Fellsway.,,I-93 N,R,Medford,Middlesex,MA,02155,US,US/Eastern,KBOS,2020-05-17 16:54:00,61.0,61.0,64.0,30.19,10.0,E,8.0,0.0,Mostly Cloudy,False,False,False,False,False,False,False,False,False,False,False,False,False,Day,Day,Day,Day
156,A-157,2,2018-03-19 14:08:41,2018-03-19 20:08:41,45.58187,-122.67851,45.58775,-122.68072,0.42,At Columbia Blvd/Exit 306 - Accident. Left lane blocked.,,I-5 N,R,Portland,Multnomah,OR,97217,US,US/Pacific,KVUO,2018-03-19 13:53:00,54.0,,62.0,30.2,10.0,West,8.1,,Clear,False,False,False,False,False,False,False,False,False,False,False,False,False,Day,Day,Day,Day
157,A-158,1,2020-06-20 02:44:37,2020-06-20 03:29:37,41.9589,-71.06367,41.96217,-71.11564,2.68,Between RT-24/Exit 7 and Bay St/Exit 9 - Accident. Hard shoulder blocked.,,I-495 N,R,Raynham,Bristol,MA,02767,US,US/Eastern,KTAN,2020-06-20 02:52:00,66.0,66.0,87.0,29.99,10.0,CALM,0.0,0.0,Fair,False,False,False,False,False,False,False,False,False,False,False,False,False,Night,Night,Night,Night
158,A-159,2,2019-10-10 11:30:00,2019-10-10 12:41:42,35.375984,-118.931871,35.375984,-118.931871,0.0,At CA-184/Morning Dr - Accident.,1199.0, Fairfax Rd,L,Bakersfield,Kern,CA,93306-5709,US,US/Pacific,KBFL,2019-10-10 11:54:00,67.0,67.0,19.0,29.47,10.0,VAR,3.0,0.0,Fair,False,False,False,False,False,False,False,False,False,False,False,False,False,Day,Day,Day,Day
159,A-160,2,2020-10-15 14:04:00,2020-10-15 16:07:35,30.403622,-81.564785,30.362512,-81.553195,2.923,Incident on I-295 SB near S END OF DAMES POINT BRG Drive with caution.,,E Beltway S,R,Jacksonville,Duval,FL,32226,US,US/Eastern,KJAX,2020-10-15 13:56:00,81.0,81.0,69.0,29.95,10.0,N,8.0,0.0,Mostly Cloudy,False,False,False,False,False,False,False,False,False,False,False,False,False,Day,Day,Day,Day
160,A-161,2,2019-12-03 16:35:00,2019-12-03 17:07:29,34.201108000000005,-118.473406,34.201108000000005,-118.473406,0.0,At Sherman Way/Haskell Ave/Exit 66 - Accident.,,I-405 N,R,Van Nuys,Los Angeles,CA,91406,US,US/Pacific,KVNY,2019-12-03 16:51:00,63.0,63.0,35.0,29.09,10.0,N,10.0,0.0,Cloudy,False,False,False,False,True,False,False,False,False,False,False,False,False,Day,Day,Day,Day
161,A-162,2,2017-01-11 09:17:50,2017-01-11 15:17:50,38.22317,-122.61118,38.21763,-122.60414,0.541,At Petaluma Blvd - Accident.,,Redwood Hwy S,R,Petaluma,Sonoma,CA,94952,US,US/Pacific,KO69,2017-01-11 09:15:00,48.2,,93.0,29.93,10.0,West,4.6,,Mostly Cloudy,False,False,False,False,True,False,False,False,False,False,False,False,False,Day,Day,Day,Day
162,A-163,2,2016-10-11 15:32:39,2016-10-11 16:02:27,47.650143,-122.347412,,,0.01,Accident on 35th St at Troll Ave.,3501.0,Troll Ave N,L,Seattle,King,WA,98103-8808,US,US/Pacific,KBFI,2016-10-11 15:53:00,61.0,,48.0,30.17,10.0,NW,8.1,,Clear,False,False,True,False,False,False,False,False,True,False,False,False,False,Day,Day,Day,Day
163,A-164,2,2020-06-19 09:17:22,2020-06-19 11:17:22,46.21548,-123.86201,46.21548,-123.86201,0.0,At Astoria Brg/US-30/W Marine Dr - Accident.,,Astoria Brg,R,Astoria,Clatsop,OR,97103,US,US/Pacific,KAST,2020-06-19 09:04:00,60.0,60.0,86.0,29.97,10.0,N,3.0,0.0,Fair,False,False,False,False,False,False,False,False,False,False,False,False,False,Day,Day,Day,Day
164,A-165,2,2017-05-14 08:28:23,2017-05-14 09:13:00,25.627335,-80.37943299999999,,,0.00999999977648,Accident on FL-821 Northbound at Exit 16 FL-992 152nd St. On entry ramp.,,Florida's Tpke N,R,Miami,Miami-Dade,FL,33157,US,US/Eastern,KTMB,2017-05-14 08:05:00,73.9,,91.0,29.87,7.0,NW,4.6,0.03,Light Rain,False,False,False,False,False,False,False,False,False,False,False,False,False,Day,Day,Day,Day
165,A-166,2,2017-08-09 07:26:15,2017-08-09 13:26:15,39.924939,-86.58699399999999,39.916138,-86.573604,0.934,At Lizton Rest Area - Accident.,,I-74 E,R,Jamestown,Boone,IN,46147,US,US/Eastern,KEYE,2017-08-09 07:53:00,61.0,,87.0,30.2,7.0,Calm,,,Clear,False,False,False,False,False,False,False,False,False,False,False,False,False,Day,Day,Day,Day
166,A-167,2,2020-03-04 08:36:04,2020-03-04 09:04:36,38.918324,-76.95503199999999,38.918324,-76.95503199999999,0.0,At South Dakota Ave - Accident. Right lane blocked.,,New York Ave W,R,Washington,District of Columbia,DC,20018,US,US/Eastern,KCGS,2020-03-04 08:28:00,49.0,46.0,40.0,29.87,10.0,W,7.0,0.0,Fair,False,False,False,False,False,False,False,False,False,False,False,False,False,Day,Day,Day,Day
167,A-168,4,2019-07-13 16:14:30,2019-07-13 16:42:44,43.84918,-84.02081,43.737277,-84.016961,7.734,Closed between Pinconning Rd/Exit 181 and Linwood Rd/Exit 173 - Road closed due to accident.,,I-75 S,R,Pinconning,Bay,MI,48650,US,US/Eastern,KIKW,2019-07-13 16:17:00,89.0,89.0,44.0,29.22,10.0,W,12.0,0.0,Partly Cloudy,False,False,False,False,False,False,False,False,False,False,False,False,False,Day,Day,Day,Day
168,A-169,2,2020-12-21 23:39:33,2020-12-22 01:36:32,26.456837,-80.089449,26.457198,-80.08935600000001,0.026,Incident on I-95 NB near EXIT 52 Drive with caution.,,I-95 N,R,Delray Beach,Palm Beach,FL,33444,US,US/Eastern,KBCT,2020-12-21 23:53:00,60.0,60.0,86.0,30.12,10.0,NNW,7.0,0.0,Fair,False,False,False,False,True,False,False,False,False,False,False,False,False,Night,Night,Night,Night
169,A-170,3,2016-09-06 17:16:06,2016-09-06 17:46:06,41.224018,-96.043098,41.224018,-96.043098,0.0,Accident on I-80 Eastbound at Exit 448 84th St.,,S 84th St,R,Omaha,Douglas,NE,68124,US,US/Central,KMLE,2016-09-06 17:15:00,90.7,,55.0,29.87,10.0,SSW,10.4,,Scattered Clouds,False,False,False,False,False,False,False,False,False,False,False,False,False,Day,Day,Day,Day
170,A-171,3,2019-02-02 17:00:20,2019-02-02 17:44:15,41.177315,-73.17304200000001,,,1.12000000477,Right lane blocked due to accident on I-95 Governor John Davis Lodge Tpke Northbound between Exit 30 CT-113 Lordship Blvd and Exit 29 Seaview Ave.,,Governor John Davis Lodge Tpke,R,Bridgeport,Fairfield,CT,06607,US,US/Eastern,KBDR,2019-02-02 16:52:00,33.1,21.2,59.0,30.06,10.0,SW,20.7,,Overcast,False,False,False,False,False,False,False,False,False,False,False,False,False,Day,Day,Day,Day
171,A-172,2,2017-06-02 19:26:55,2017-06-02 20:04:03,39.014515,-77.48455,39.014515,-77.48455,0.0,Accident on VA-625 Waxpool Rd at Ashburn Village Blvd.,43899.0,Waxpool Rd,R,Ashburn,Loudoun,VA,20147-6917,US,US/Eastern,KJYO,2017-06-02 19:35:00,77.0,,32.0,30.02,10.0,North,13.8,,Clear,False,False,False,False,False,False,False,False,False,False,False,True,False,Day,Day,Day,Day
172,A-173,3,2019-05-21 17:07:55,2019-05-21 18:07:30,30.464523,-90.917725,30.464523,-90.917725,0.0,2 right lane blocked due to accident on I-12 Westbound at Exit 12 LA-1026 Juban Rd.,,Juban Rd,R,Denham Springs,Livingston,LA,70726,US,US/Central,KBTR,2019-05-21 16:53:00,89.0,89.0,52.0,29.73,10.0,SSW,16.0,0.0,Fair,False,False,False,False,False,False,False,False,False,False,False,False,False,Day,Day,Day,Day
173,A-174,2,2020-12-14 19:41:16,2020-12-14 20:41:16,45.542439,-122.484029,45.547589,-122.548459,3.138,Left lane closed west of 162nd due to crash use caution.,,I-84 W,R,Portland,Multnomah,OR,97230,US,US/Pacific,KTTD,2020-12-14 19:53:00,43.0,39.0,93.0,30.23,10.0,E,6.0,0.0,Partly Cloudy,False,False,False,False,False,False,False,False,False,False,False,False,False,Night,Night,Night,Night
174,A-175,2,2020-01-02 18:38:49,2020-01-02 19:06:44,34.40578,-88.9207,34.40708,-88.93918000000001,1.057,At MS-15/MS-30/Exit 64 - Accident.,,I-22 W,R,Blue Springs,Union,MS,38828,US,US/Central,KTUP,2020-01-02 17:53:00,57.0,57.0,93.0,29.31,4.0,E,5.0,0.22,Rain,False,False,False,False,False,False,False,False,False,False,False,False,False,Night,Night,Night,Night
175,A-176,2,2016-05-03 15:46:42,2016-05-03 16:31:42,38.017952,-121.894058,,,0.01,Right hand shoulder blocked due to accident on CA-4 Eastbound at CA-4 Exit 23 / Railroad Ave.,,CA-4 E,R,Pittsburg,Contra Costa,CA,94565,US,US/Pacific,KCCR,2016-05-03 15:53:00,78.1,,37.0,29.88,10.0,NW,8.1,,Clear,False,False,False,False,False,False,False,False,False,False,False,False,False,Day,Day,Day,Day
176,A-177,3,2018-07-09 09:29:21,2018-07-09 10:13:59,30.456015,-97.666321,30.456015,-97.666321,0.0,One lane blocked due to accident on I-35 Northbound at Exit 248 Grand Avenue Pkwy.,,I-35 N,R,Pflugerville,Travis,TX,78660,US,US/Central,KEDC,2018-07-09 09:35:00,73.4,,100.0,30.21,2.5,Calm,,0.03,Light Rain,False,False,False,False,False,False,False,False,False,False,False,False,False,Day,Day,Day,Day
177,A-178,3,2020-01-22 15:29:39,2020-01-22 16:29:28,41.27264,-72.970589,41.27264,-72.970589,0.0,Right lane blocked due to accident on I-95 Governor John Davis Lodge Tpke Northbound at Exit 42 CT-162 Sawmill Rd.,,Governor John Davis Lodge Tpke N,R,West Haven,New Haven,CT,06516,US,US/Eastern,KHVN,2020-01-22 15:53:00,36.0,29.0,55.0,30.4,10.0,SW,9.0,0.0,Fair,False,False,False,False,True,False,False,False,False,False,False,False,False,Day,Day,Day,Day
178,A-179,2,2020-09-09 17:32:12,2020-09-09 19:01:54,45.123852,-93.33902,,,0.509999990463,Accident on exit ramp from MN-610 Eastbound to Noble Pky.,,MN-610 E,R,Minneapolis,Hennepin,MN,55443,US,US/Central,KMIC,2020-09-09 17:53:00,46.0,46.0,83.0,29.5,10.0,ENE,3.0,0.01,Cloudy,False,False,False,False,False,False,False,False,False,False,False,False,False,Day,Day,Day,Day
179,A-180,2,2019-09-10 20:27:14,2019-09-10 21:12:58,34.557976000000004,-118.132591,34.557976000000004,-118.132591,0.0,Accident on CA-14 Southbound at Exit 33 Avenue.,,Avenue S,R,Palmdale,Los Angeles,CA,93551,US,US/Pacific,KPMD,2019-09-10 20:53:00,64.0,64.0,72.0,27.25,10.0,SSW,16.0,0.0,Fair,False,False,False,False,False,False,False,False,False,False,False,False,False,Night,Night,Night,Day
180,A-181,2,2019-03-20 11:29:32,2019-03-20 12:49:00,39.841164,-75.404449,39.841164,-75.404449,0.0,Shoulder closed due to accident on I-95 Northbound at Exits 3 3A 3B-A US-322 Conchester Rd.,,I-95 S,R,Chester,Delaware,PA,19013,US,US/Eastern,KPHL,2019-03-20 11:54:00,48.9,,35.0,30.4,10.0,South,10.4,,Mostly Cloudy,False,False,False,False,False,False,False,False,False,False,False,False,False,Day,Day,Day,Day
181,A-182,2,2019-10-18 14:03:00,2019-10-18 16:20:35,34.165503,-118.492347,34.165503,-118.492347,0.0,At US-101/Ventura Fwy/Magnolia Blvd - Accident.,,US-101 N,R,Encino,Los Angeles,CA,91436,US,US/Pacific,KVNY,2019-10-18 13:51:00,83.0,83.0,18.0,29.03,10.0,VAR,3.0,0.0,Fair,False,False,False,False,False,False,False,False,False,False,False,False,False,Day,Day,Day,Day
182,A-183,3,2018-02-19 05:09:41,2018-02-19 05:37:58,45.531761,-122.565521,,,0.8399999737739999,Accident on exit ramp from I-205 Northbound at Exits 21A 21B to I-84 Westbound.,,E Portland Fwy S,R,Portland,Multnomah,OR,97220,US,US/Pacific,KPDX,2018-02-19 04:53:00,32.0,26.4,75.0,30.06,10.0,East,5.8,,Overcast,False,False,False,False,False,False,False,False,False,False,False,False,False,Night,Night,Night,Night
183,A-184,2,2016-09-08 21:29:01,2016-09-08 22:00:00,38.358604,-121.934029,38.358604,-121.934029,0.0,Accident on Hawkins Rd at Leisure Town Rd.,6200.0,Leisure Town Rd,L,Vacaville,Solano,CA,95687-9405,US,US/Pacific,KVCB,2016-09-08 21:53:00,73.0,,44.0,29.94,10.0,SSE,4.6,,Clear,False,False,False,False,False,False,False,False,False,True,False,False,False,Night,Night,Night,Night
184,A-185,2,2019-03-15 20:35:51,2019-03-15 23:08:37,35.585209000000006,-97.5672,35.585209000000006,-97.5672,0.0,Accident on 112th St at May Ave.,2898.0,NW 112th St,L,Oklahoma City,Oklahoma,OK,73120,US,US/Central,KPWA,2019-03-15 20:53:00,44.1,40.8,43.0,30.43,10.0,NE,5.8,,Clear,False,False,False,False,False,False,False,False,False,False,False,True,False,Night,Night,Night,Day
185,A-186,2,2017-08-03 13:39:51,2017-08-03 14:09:22,27.76623,-82.768204,27.76623,-82.768204,0.0,Accident on 104th Ave Southbound at Gulf Blvd.,101.0,104th Ave,R,Treasure Island,Pinellas,FL,33706-4804,US,US/Eastern,KSPG,2017-08-03 13:53:00,89.1,,63.0,30.1,10.0,WSW,9.2,,Partly Cloudy,False,False,True,False,False,False,False,False,True,False,False,False,False,Day,Day,Day,Day
186,A-187,2,2019-05-11 23:20:00,2019-05-12 05:26:12,40.611329,-111.90618,40.60252,-111.904532,0.615,At UT-209/9000/Exit 295 - Accident.,,I-15 S,R,Midvale,Salt Lake,UT,84047,US,US/Mountain,KU42,2019-05-11 22:54:00,59.0,59.0,46.0,25.68,10.0,SSE,6.0,0.0,Partly Cloudy,False,False,False,False,False,False,False,False,False,False,False,False,False,Night,Night,Night,Night
187,A-188,2,2017-07-27 09:46:19,2017-07-27 10:16:07,35.846008000000005,-78.836472,35.846008000000005,-78.836472,0.0,Slow traffic due to accident on NC-54 Chapel Hill Rd both ways at McCrimmon Pkwy.,5600.0,McCrimmon Pkwy,L,Morrisville,Wake,NC,27560-8678,US,US/Eastern,KRDU,2017-07-27 09:51:00,82.0,,65.0,30.07,10.0,WSW,11.5,,Mostly Cloudy,False,False,True,False,False,False,False,False,False,False,False,True,False,Day,Day,Day,Day
188,A-189,2,2018-04-16 08:32:42,2018-04-16 09:17:29,33.931194,-117.993202,33.931194,-117.993202,0.0,Accident on Leffingwell Rd near Santa Gertrudes Ave.,15741.0,Leffingwell Rd,L,Whittier,Los Angeles,CA,90604-3326,US,US/Pacific,KFUL,2018-04-16 08:25:00,60.1,,72.0,30.01,10.0,Calm,,,Mostly Cloudy,False,False,False,False,False,False,False,False,False,False,False,True,False,Day,Day,Day,Day
189,A-190,2,2016-03-30 16:55:03,2016-03-30 22:55:03,40.18096,-74.10131,40.16993,-74.10132,0.762,Ramp to Exit 98 - Accident.,,Garden State Pkwy S,R,Neptune,Monmouth,NJ,07753,US,US/Eastern,KBLM,,,,,,,,,,,False,False,False,False,False,False,False,False,False,False,False,False,False,Day,Day,Day,Day
190,A-191,2,2017-01-10 08:07:15,2017-01-10 08:36:22,33.544922,-81.677643,,,0.01,Accident on SC-302 Pine Log Rd at US-78 Trk Rudy Mason Pkwy.,,Charleston Hwy,R,Aiken,Aiken,SC,29801,US,US/Eastern,KAIK,2017-01-10 08:15:00,24.8,,74.0,30.57,5.0,Calm,,,Haze,False,False,False,False,False,False,False,False,False,False,False,False,False,Day,Day,Day,Day
191,A-192,2,2017-01-10 13:17:15,2017-01-10 19:17:56,37.47018,-121.90886,37.46333,-121.90338,0.561,At Scott Creek Rd - Accident.,,I-680 S,R,Fremont,Alameda,CA,94539,US,US/Pacific,KNUQ,2017-01-10 12:56:00,57.9,,84.0,29.9,4.0,SSE,6.9,0.05,Rain,False,False,False,False,True,False,False,False,False,False,False,False,False,Day,Day,Day,Day
192,A-193,2,2020-06-13 18:06:32,2020-06-13 19:01:03,35.221828,-80.828453,35.221828,-80.828453,0.0,Lane blocked due to accident on US-74 Eastbound at Exit 242 I-277 Exit 2B.,,Brookshire Fwy W,R,Charlotte,Mecklenburg,NC,28204,US,US/Eastern,KCLT,2020-06-13 17:52:00,83.0,83.0,37.0,29.3,10.0,NNE,12.0,0.0,Fair,False,False,False,False,False,False,False,False,False,False,False,False,False,Day,Day,Day,Day
193,A-194,3,2020-11-04 16:18:51,2020-11-04 16:48:22,29.784912,-95.688347,29.784912,-95.688347,0.0,Right and center lane blocked due to accident on I-10 Westbound at Barker Cypress Rd.,,Katy Tollway,R,Houston,Harris,TX,77094,US,US/Central,KSGR,2020-11-04 15:53:00,79.0,79.0,44.0,30.1,10.0,S,5.0,0.0,Fair,False,False,False,False,False,False,False,False,False,False,False,False,False,Day,Day,Day,Day
194,A-195,2,2019-12-16 06:47:00,2019-12-16 07:40:05,44.31172,-93.99379,44.31172,-93.99379,0.0,At US-169 - Accident.,,State Highway 99,R,Saint Peter,Nicollet,MN,56082,US,US/Central,KMKT,2019-12-16 06:56:00,18.0,10.0,88.0,29.06,10.0,SSW,6.0,0.0,Cloudy,False,False,False,False,False,False,False,False,False,False,False,False,False,Night,Night,Day,Day
195,A-196,2,2017-08-07 16:20:51,2017-08-07 22:20:51,32.958290000000005,-97.14342,32.964306,-97.155685,0.8240000000000001,At N White Chapel Blvd - Accident.,,E Northwest Pkwy E,R,Southlake,Tarrant,TX,76092,US,US/Central,KDFW,2017-08-07 15:53:00,90.0,,54.0,29.87,10.0,NNE,10.4,,Mostly Cloudy,False,False,False,False,False,False,False,False,False,False,False,False,False,Day,Day,Day,Day
196,A-197,4,2018-07-09 01:08:19,2018-07-09 07:08:19,32.71983,-117.11757,32.716809999999995,-117.1197,0.243,Ramp closed to CA-15 - Road closed due to accident.,,CA-15 S,R,San Diego,San Diego,CA,92105,US,US/Pacific,KSAN,2018-07-09 00:51:00,75.0,,71.0,29.93,10.0,South,4.6,,Scattered Clouds,False,False,False,False,False,False,False,False,False,False,False,False,False,Night,Night,Night,Night
197,A-198,3,2020-05-10 19:41:21,2020-05-10 20:11:21,39.26285,-76.56695,39.26285,-76.56695,0.0,At I-95 - Accident.,4589.0, Keith Ave,L,Baltimore,Baltimore City,MD,21224,US,US/Eastern,KDMH,2020-05-10 19:54:00,60.0,,42.0,29.99,,,,0.0,,False,False,False,False,False,False,False,False,False,False,False,False,False,Day,Day,Day,Day
198,A-199,2,2016-08-24 07:42:32,2016-08-24 13:42:32,33.46147,-112.28829,33.46115,-112.29695,0.5,At 107th Ave/Exit 132 - Accident.,,Pearl Harbor Memorial Highway,R,Avondale,Maricopa,AZ,85323,US,US/Mountain,KGYR,2016-08-24 07:47:00,84.2,,37.0,30.03,10.0,North,5.8,,Partly Cloudy,False,False,False,False,False,False,False,False,False,False,False,False,False,Day,Day,Day,Day
199,A-200,3,2019-11-04 08:33:21,2019-11-04 09:48:13,40.903866,-74.15786700000001,40.903866,-74.15786700000001,0.0,Multi-vehicle accident on I-80 Westbound at Exits 58A-B 58B-A 23rd Ave.,1091.0,Madison Ave,L,Paterson,Passaic,NJ,07513,US,US/Eastern,KTEB,2019-11-04 08:51:00,47.0,47.0,52.0,30.36,10.0,CALM,0.0,0.0,Fair,False,False,False,False,False,False,False,False,False,False,False,False,False,Day,Day,Day,Day
200,A-201,3,2019-08-13 18:54:15,2019-08-13 19:23:57,33.68363,-117.87666000000002,33.68222,-117.87803999999998,0.126,Ramp to CA-55/Costa Mesa Fwy/Exit 9A - Accident. Lane blocked.,,CA-55 S,R,Costa Mesa,Orange,CA,92626,US,US/Pacific,KSNA,2019-08-13 18:53:00,74.0,74.0,62.0,29.85,10.0,SW,7.0,0.0,Fair,False,False,False,False,False,False,False,False,False,False,False,False,False,Day,Day,Day,Day
201,A-202,2,2019-05-16 15:20:32,2019-05-16 16:20:51,34.693901000000004,-82.733963,34.693901000000004,-82.733963,0.0,Accident on Central Rd at Revista Dr.,280.0,Central Rd,L,Central,Anderson,SC,29630-9606,US,US/Eastern,KCEU,2019-05-16 14:54:00,79.0,79.0,47.0,29.04,10.0,W,7.0,0.0,Light Rain,False,False,False,False,False,False,False,False,False,False,False,False,False,Day,Day,Day,Day
202,A-203,2,2017-10-16 05:19:07,2017-10-16 11:19:07,29.21297,-81.10059,29.22635,-81.10525,0.966,At CR-4019/Lpga Blvd/Exit 265 - Accident.,,I-95 N,R,Daytona Beach,Volusia,FL,32114,US,US/Eastern,KDAB,2017-10-16 04:53:00,75.0,,96.0,29.98,6.0,Calm,,,Partly Cloudy,False,False,False,False,False,False,False,False,False,False,False,False,False,Night,Night,Night,Night
203,A-204,3,2016-09-29 10:10:56,2016-09-29 16:10:56,34.82976,-82.29406,34.83478,-82.30251,0.5920000000000001,At I-85/Exit 36 - Accident.,,Golden Strip Fwy N,R,Greenville,Greenville,SC,29615,US,US/Eastern,KGMU,2016-09-29 09:53:00,72.0,,61.0,29.94,10.0,ENE,5.8,,Partly Cloudy,False,False,False,False,False,False,False,False,False,False,False,False,False,Day,Day,Day,Day
204,A-205,3,2018-07-25 11:07:17,2018-07-25 11:36:56,39.632698,-104.906487,39.632698,-104.906487,0.0,Accident on I-225 Southbound at Exits 1A 1B I-25.,,US-87 S,R,Denver,Denver,CO,80237,US,US/Mountain,KAPA,2018-07-25 10:53:00,73.9,,59.0,30.14,10.0,North,15.0,,Scattered Clouds,False,False,False,False,False,False,False,False,False,False,False,False,False,Day,Day,Day,Day
205,A-206,3,2018-05-25 07:53:24,2018-05-25 13:53:24,42.26919,-83.2251,42.26769,-83.21807,0.374,Ramp to I-94 Eastbound - Accident.,,Southfield Rd,R,Allen Park,Wayne,MI,48101,US,US/Eastern,KDTW,2018-05-25 07:53:00,64.9,,63.0,30.0,7.0,SSW,4.6,,Mostly Cloudy,False,False,False,False,True,False,False,False,False,False,False,False,False,Day,Day,Day,Day
206,A-207,3,2020-05-07 16:36:23,2020-05-07 17:06:02,39.976933,-75.198631,,,0.0,Lane blocked due to accident on I-76 Eastbound at Exit 342 US-30 Girard Ave.,,I-76 E,R,Philadelphia,Philadelphia,PA,19131,US,US/Eastern,KPHL,2020-05-07 16:54:00,65.0,65.0,22.0,29.78,10.0,W,12.0,0.0,Fair,False,False,False,False,False,False,False,False,False,False,False,False,False,Day,Day,Day,Day
207,A-208,2,2020-11-24 00:31:00,2020-11-24 03:17:19,38.521811,-78.836011,38.521916,-78.837299,0.07,On Rt. 721 (Longs Pump Rd) in the County of Rockingham in the vicinity of Kratzer Rd; Rt. 753E/W (Rockingham County) motorists can expect delays due to a vehicle crash. All West lanes are closed. All East lanes are closed.,2700.0, Sipe Ln,R,Linville,Rockingham,VA,22834,US,US/Eastern,KSHD,2020-11-24 00:35:00,34.0,34.0,82.0,29.03,10.0,CALM,0.0,0.0,Cloudy,False,False,False,False,False,False,False,False,False,False,False,False,False,Night,Night,Night,Night
208,A-209,2,2020-03-15 12:38:00,2020-03-15 13:29:47,38.657713,-121.363862,38.657713,-121.363862,0.0,At I-80-BR/Auburn Blvd - Accident.,,I-80 W,R,Sacramento,Sacramento,CA,95841,US,US/Pacific,KMCC,2020-03-15 12:45:00,50.0,50.0,87.0,29.86,7.0,SW,12.0,,Light Rain Shower,False,False,False,False,False,False,False,False,False,False,False,False,False,Day,Day,Day,Day
209,A-210,3,2018-10-08 09:43:48,2018-10-08 10:13:35,39.105335,-94.709862,39.105335,-94.709862,0.0,Right lane blocked due to accident on I-70 Westbound at Exit 417 57th St.,,US-24 W,R,Kansas City,Wyandotte,KS,66102,US,US/Central,KNKA,2018-10-08 09:36:00,,,,,,North,,,,False,False,False,False,False,False,False,False,False,False,False,False,False,Day,Day,Day,Day
210,A-211,2,2020-10-31 08:12:30,2020-11-01 10:13:29,37.267,-80.13744200000001,37.266982,-80.137704,0.0139999999999999,On Rt. 646 in the County of Roanoke in the vicinity of Mayfair Dr; Rt. 852N/S (Roanoke County) motorists can expect delays due to a vehicle crash. All West lanes are closed. All East lanes are closed.,4308.0, Barley Dr,R,Salem,Roanoke County,VA,24153,US,US/Eastern,KROA,2020-10-31 07:54:00,39.0,39.0,86.0,29.18,10.0,CALM,0.0,0.0,Cloudy,False,False,False,False,False,False,False,False,False,False,False,False,False,Day,Day,Day,Day
211,A-212,2,2020-01-04 08:52:00,2020-01-04 10:03:26,34.036971,-118.43854,34.036971,-118.43854,0.0,At Olympic Blvd/Pico Blvd/Exit 54 - Accident.,,I-405 N,R,Los Angeles,Los Angeles,CA,90064,US,US/Pacific,KSMO,2020-01-04 08:51:00,56.0,56.0,60.0,30.17,10.0,CALM,0.0,0.0,Fair,False,False,False,False,False,False,False,False,False,False,False,False,False,Day,Day,Day,Day
212,A-213,2,2019-10-24 21:52:29,2019-10-24 22:22:07,33.49411,-86.330162,33.49411,-86.330162,0.0,Accident on US-231 Northbound at Mount Pisgah Dr.,84.0,Mount Pisgah Dr,L,Cropwell,St. Clair,AL,35054-4415,US,US/Central,KANB,2019-10-24 21:53:00,60.0,60.0,64.0,29.55,10.0,NNE,6.0,0.0,Fair,False,False,False,False,False,False,False,False,False,False,False,False,False,Night,Night,Night,Night
213,A-214,3,2019-07-31 17:14:32,2019-07-31 18:44:47,29.797159000000004,-95.031898,29.797159000000004,-95.031898,0.0,Left and center lane blocked due to accident on I-10 Westbound at Thompson Rd.,6850.0,Thompson Rd,R,Baytown,Harris,TX,77521-1334,US,US/Central,KEFD,2019-07-31 16:50:00,90.0,90.0,62.0,29.94,10.0,SSE,9.0,,Mostly Cloudy,False,False,False,False,False,False,False,False,False,False,False,True,False,Day,Day,Day,Day
214,A-215,2,2020-10-28 18:06:30,2020-10-28 23:23:00,30.337242,-81.669167,30.330234,-81.675079,0.599,Slow traffic on I-95 S - FL-228 - FL-228 W - US-17 S from Kings Rd to exit [352D] due to accident.,,FL-228,R,Jacksonville,Duval,FL,32204,US,US/Eastern,KNIP,2020-10-28 17:53:00,83.0,83.0,74.0,29.96,10.0,ESE,15.0,0.0,Mostly Cloudy,False,False,True,False,False,False,False,False,False,False,False,False,False,Day,Day,Day,Day
215,A-216,2,2019-11-12 13:46:03,2019-11-12 14:50:07,35.11739,-81.306679,35.11739,-81.306679,0.0,Accident on SC-161 at SC-55.,1599.0,Highway 161 N,L,Clover,York,SC,29710-7418,US,US/Eastern,KAKH,2019-11-12 13:54:00,43.0,38.0,68.0,29.14,10.0,N,8.0,0.0,Cloudy,False,False,False,False,False,False,False,False,False,False,False,False,False,Day,Day,Day,Day
216,A-217,2,2020-09-24 07:39:00,2020-09-24 10:22:38,36.521611,-121.44837,36.523129,-121.46108999999998,0.7140000000000001,Incident on US-101 NB near 1.3 MI Expect delays.,,El Camino Real S,R,Gonzales,Monterey,CA,93926,US,US/Pacific,KSNS,2020-09-24 07:53:00,60.0,60.0,86.0,29.97,9.0,NNW,5.0,0.0,Fair,False,False,False,False,False,False,False,False,False,False,False,False,False,Day,Day,Day,Day
217,A-218,3,2016-11-22 20:13:15,2016-11-22 20:42:19,33.895256,-84.263733,,,0.01,Queueing traffic and (Three) left lane blocked due to accident on I-285 Eastbound at Exits 32 33B I-85.,,GA-407 W,R,Atlanta,DeKalb,GA,30340,US,US/Eastern,KPDK,2016-11-22 19:53:00,43.0,,47.0,30.3,10.0,Calm,,,Clear,False,False,False,False,False,False,False,False,False,False,False,False,False,Night,Night,Night,Night
218,A-219,2,2019-10-18 05:46:00,2019-10-18 07:19:46,44.86555,-93.29896,44.86533,-93.29893,0.015,At I-494/MN-5/Exit 9 - Accident.,,W 76th St,R,Minneapolis,Hennepin,MN,55423,US,US/Central,KMSP,2019-10-18 05:53:00,45.0,38.0,74.0,28.91,10.0,SE,16.0,0.0,Fair,False,False,False,False,False,False,False,False,False,False,False,False,False,Night,Night,Night,Night
219,A-220,2,2019-09-12 10:18:43,2019-09-12 11:19:28,32.768566,-96.674858,32.768566,-96.674858,0.0,Accident on Military Pkwy near Delafield Ln.,3627.0,Delafield Ln,L,Dallas,Dallas,TX,75227,US,US/Central,KHQZ,2019-09-12 09:50:00,81.0,81.0,79.0,29.64,10.0,SSE,9.0,0.0,Partly Cloudy,False,False,False,False,False,False,False,False,False,False,False,False,False,Day,Day,Day,Day
220,A-221,4,2016-12-08 22:32:49,2016-12-09 04:32:49,25.734321,-80.251918,25.73533,-80.2503,0.122,Closed at SR-976/Bird Rd/30th St - Road closed due to accident.,3588.0, S Dixie Hwy,L,Miami,Miami-Dade,FL,33133-4342,US,US/Eastern,KMIA,2016-12-08 22:53:00,73.9,,87.0,30.12,7.0,North,3.5,,Overcast,False,False,True,False,False,False,False,False,False,False,False,False,False,Night,Night,Night,Night
221,A-222,2,2020-11-11 19:01:05,2020-11-11 21:00:53,34.698074,-82.30504599999999,34.697688,-82.306045,0.063,Incident on CROSSVINE WAY near BRYDON CT Drive with caution.,101.0, Brydon Ct,L,Simpsonville,Greenville,SC,29680-6866,US,US/Eastern,KGYH,2020-11-11 19:05:00,73.0,73.0,94.0,28.9,10.0,CALM,0.0,0.0,Light Rain,False,False,False,False,False,False,False,False,False,False,False,False,False,Night,Night,Night,Night
222,A-223,2,2020-12-19 06:35:32,2020-12-19 07:50:32,29.79659,-95.579627,29.799042,-95.579611,0.1689999999999999,Incident on SHERWOOD FOREST ST near HAZELHURST DR Drive with caution.,1688.0, Sherwood Forest St,R,Houston,Harris,TX,77043-3602,US,US/Central,KMCJ,2020-12-19 06:37:00,63.0,63.0,87.0,30.04,10.0,E,6.0,0.0,Cloudy,False,False,False,False,False,False,False,False,False,False,False,False,False,Night,Night,Day,Day
223,A-224,2,2020-11-21 00:07:00,2020-11-21 01:33:00,33.651927,-84.497727,33.639197,-84.494337,0.901,Incident on I-285 SB near WASHINGTON RD Center lane blocked. Expect Delays.,,GA-407 S,R,Atlanta,Fulton,GA,30344,US,US/Eastern,KATL,2020-11-21 00:52:00,53.0,53.0,80.0,29.31,10.0,CALM,0.0,0.0,Fair,False,False,False,False,False,False,False,False,False,False,False,False,False,Night,Night,Night,Night
224,A-225,3,2016-07-15 16:08:40,2016-07-15 17:23:40,37.948418,-121.300972,37.948418,-121.300972,0.0,Accident on I-5 Northbound at Exit 472 / CA-4 Exits 65A 65B / CA-4 Ort J Lofthus Fwy Exits 65A-B 66A.,,Ort J Lofthus Fwy W,R,Stockton,San Joaquin,CA,95203,US,US/Pacific,KSCK,2016-07-15 15:55:00,98.1,,14.0,29.81,10.0,WNW,9.2,,Clear,False,False,False,False,False,False,False,False,False,False,False,False,False,Day,Day,Day,Day
225,A-226,2,2020-10-06 10:18:28,2020-10-06 12:18:00,38.938068,-94.398103,38.934618,-94.405993,0.486,Incident on I-470 WB near MO-350 Right lane blocked. Expect delays.,,I-470 W,R,Lees Summit,Jackson,MO,64086,US,US/Central,KLXT,2020-10-06 09:53:00,63.0,63.0,65.0,28.98,10.0,WSW,14.0,0.0,Fair,False,False,False,False,True,False,False,False,False,False,False,False,False,Day,Day,Day,Day
226,A-227,3,2016-05-28 05:13:40,2016-05-28 11:13:40,33.65761,-117.74564,33.657633000000004,-117.745658,0.002,At Alton Pky - Accident.,,Santa Ana Fwy S,R,Irvine,Orange,CA,92618,US,US/Pacific,KSNA,2016-05-28 04:53:00,61.0,,81.0,29.84,10.0,ESE,4.6,,Overcast,False,False,False,False,False,False,False,False,False,False,False,False,False,Night,Night,Day,Day
227,A-228,2,2020-03-23 07:28:30,2020-03-23 08:20:16,34.03078,-118.21791,34.03078,-118.21791,0.0,At I-5/Golden State Fwy - Accident.,,Santa Ana Fwy S,R,Los Angeles,Los Angeles,CA,90023,US,US/Pacific,KCQT,2020-03-23 07:52:00,57.0,57.0,83.0,29.91,10.0,CALM,0.0,0.01,Fair,False,False,False,False,False,False,False,False,False,False,False,False,False,Day,Day,Day,Day
228,A-229,2,2020-10-19 07:30:47,2020-10-19 09:00:26,29.186419,-82.185303,29.186419,-82.185303,0.0,Accident on FL-40 Silver Springs Blvd at I-75 .,,W Silver Springs Blvd,R,Ocala,Marion,FL,34482,US,US/Eastern,KOCF,2020-10-19 07:51:00,71.0,71.0,84.0,29.99,10.0,NE,6.0,0.0,Fair,False,False,False,True,False,False,False,False,False,False,False,True,False,Night,Day,Day,Day
229,A-230,2,2017-02-17 07:48:16,2017-02-17 08:17:40,40.355076,-76.379272,40.355076,-76.379272,0.0,Accident on North Dr near East Dr.,700.0,North Dr,L,Lebanon,Lebanon,PA,17046,US,US/Eastern,KMUI,2017-02-17 07:58:00,25.9,19.2,61.0,29.95,10.0,Variable,5.8,,Partly Cloudy,False,False,False,False,False,False,False,False,False,False,False,False,False,Day,Day,Day,Day
230,A-231,3,2018-02-23 06:29:10,2018-02-23 06:58:06,32.472916,-93.796127,,,0.519999980927,Entry ramp to Jewella Ave Southbound at Exit 14 from I-20 Westbound closed due to accident.,,I-20 W,R,Shreveport,Caddo,LA,71109,US,US/Central,KSHV,2018-02-23 06:44:00,,,,,,North,,,,False,False,False,False,False,False,False,False,False,False,False,False,False,Night,Day,Day,Day
231,A-232,2,2019-02-20 14:50:58,2019-02-20 15:20:18,27.95956,-82.42554,27.96543,-82.43249,0.5870000000000001,Ramp to 22nd St/Exit 9 - Accident. Left lane blocked.,1674.0, N 31st St,L,Tampa,Hillsborough,FL,33605,US,US/Eastern,KTPF,2019-02-20 14:55:00,86.0,,58.0,30.04,10.0,SW,10.4,,Overcast,False,False,True,False,False,False,True,False,False,False,False,False,False,Day,Day,Day,Day
232,A-233,2,2020-09-01 14:29:28,2020-09-01 15:15:04,37.634975,-122.086945,37.634975,-122.086945,0.0,Right hand shoulder blocked due to accident on I-880 Southbound after Exit 26 Tennyson Rd.,,I-880 S,R,Hayward,Alameda,CA,94545,US,US/Pacific,KHWD,2020-09-01 14:54:00,72.0,72.0,55.0,29.91,9.0,WNW,12.0,0.0,Smoke,False,False,False,False,True,False,False,False,False,False,False,False,False,Day,Day,Day,Day
233,A-234,2,2020-11-01 22:24:56,2020-11-02 00:26:48,40.484029,-74.302049,40.489839,-74.301519,0.402,Crash on Garden State Parkway northbound South of Raritan Toll Plaza (Sayreville) left shoulder blocked,,Garden State Pkwy N,R,Sayreville,Middlesex,NJ,08872,US,US/Eastern,KLDJ,2020-11-01 22:15:00,47.0,41.0,60.0,29.73,10.0,NW,12.0,0.0,Mostly Cloudy,False,False,False,False,False,False,False,False,False,False,False,False,False,Night,Night,Night,Night
234,A-235,2,2018-01-13 13:46:21,2018-01-13 14:30:55,33.997040000000005,-117.931015,33.997040000000005,-117.931015,0.0,Right hand shoulder blocked due to accident on CA-60 Westbound at Exit 18 Azusa Ave.,,S Azusa Ave,R,Rowland Heights,Los Angeles,CA,91748,US,US/Pacific,KFUL,2018-01-13 13:53:00,86.0,,13.0,30.04,10.0,East,11.5,,Mostly Cloudy,False,False,False,False,False,False,False,False,False,False,False,False,False,Day,Day,Day,Day
235,A-236,2,2020-06-27 23:24:00,2020-06-28 00:36:25,37.789969,-121.291099,37.789969,-121.291099,0.0,At Yosemite Ave - Accident.,,CA-120 E,R,Lathrop,San Joaquin,CA,95330,US,US/Pacific,KSCK,2020-06-27 22:55:00,70.0,70.0,53.0,29.66,10.0,WSW,17.0,0.0,Fair,False,False,False,False,True,False,False,False,False,False,False,False,False,Night,Night,Night,Night
236,A-237,3,2020-01-30 08:15:21,2020-01-30 08:42:50,39.7174,-86.12572,39.71447,-86.11717,0.497,At Keystone Ave/Exit 107 - Accident. Right lane blocked.,,I-65 S,R,Indianapolis,Marion,IN,46227,US,US/Eastern,KIND,2020-01-30 07:54:00,32.0,32.0,79.0,29.34,10.0,NNE,3.0,0.0,Cloudy,False,False,False,False,False,False,False,False,False,False,False,False,False,Day,Day,Day,Day
237,A-238,2,2018-12-04 07:05:56,2018-12-04 11:05:56,45.828438,-122.843275,45.826562,-122.844305,0.139,At NE Westlane Rd/W Lane Rd/Wikstrom Dr - Accident.,57412.0, Columbia River Hwy,R,Warren,Columbia,OR,97053-9421,US,US/Pacific,KSPB,2018-12-04 06:53:00,30.9,26.2,85.0,30.28,10.0,NW,4.6,,Clear,False,False,False,False,False,False,False,False,False,False,False,False,False,Night,Day,Day,Day
238,A-239,2,2018-04-06 06:12:32,2018-04-06 06:42:01,28.348536,-81.56498,28.348536,-81.56498,0.0,Lane blocked due to accident on World Dr at Osceola Pkwy.,,World Dr N,R,Orlando,Orange,FL,32830,US,US/Eastern,KISM,2018-04-06 05:56:00,64.0,,84.0,30.08,10.0,ENE,3.5,,Scattered Clouds,False,False,False,False,False,False,False,False,False,False,False,False,False,Night,Night,Night,Day
239,A-240,2,2019-01-11 13:53:13,2019-01-11 14:22:57,47.463745,-122.29391499999998,47.463745,-122.29391499999998,0.0,2 left lane blocked due to accident on WA-518 Eastbound at WA-99 International Blvd.,,WA-518 W,R,Seattle,King,WA,98158,US,US/Pacific,KSEA,2019-01-11 13:53:00,59.0,,41.0,29.93,10.0,East,9.2,,Mostly Cloudy,False,False,False,False,False,False,False,False,False,False,False,False,False,Day,Day,Day,Day
240,A-241,2,2018-12-19 12:16:05,2018-12-19 12:45:59,38.23583,-85.61639,38.2377,-85.6293,0.7120000000000001,At I-264/Watterson Expy/Exit 12 - Accident. Center lane blocked.,,I-64 W,R,Louisville,Jefferson,KY,40222,US,US/Eastern,KLOU,2018-12-19 11:53:00,50.0,,50.0,30.01,10.0,South,5.8,,Clear,False,False,False,False,False,False,False,False,False,False,False,False,False,Day,Day,Day,Day
241,A-242,2,2020-10-21 08:30:12,2020-10-21 09:45:12,26.31321,-80.117207,26.30826,-80.118647,0.353,Incident on I-95 SB near EXIT 41 Drive with caution.,,I-95 S,R,Deerfield Beach,Broward,FL,33442,US,US/Eastern,KPMP,2020-10-21 08:41:00,75.0,75.0,87.0,29.96,2.0,ENE,9.0,0.0,Rain,False,False,False,False,False,False,False,False,False,False,False,False,False,Day,Day,Day,Day
242,A-243,2,2016-05-03 12:40:39,2016-05-03 18:40:39,40.689153000000005,-74.3014,40.69006,-74.29448000000001,0.368,Between Monroe St S and CR-31/CR-617/Michigan Ave - Accident.,2534.0, US Highway 22 E,L,Union,Union,NJ,07083-8508,US,US/Eastern,KEWR,2016-05-03 12:51:00,54.0,,97.0,29.83,6.0,NNE,8.1,0.0,Light Drizzle,False,False,False,False,False,False,False,False,False,False,False,False,False,Day,Day,Day,Day
243,A-244,2,2018-03-04 16:44:06,2018-03-04 17:29:00,35.162048,-80.970139,35.162048,-80.970139,0.0,Slow traffic due to accident on NC-160 Steele Creek Rd Northbound at Dixie River Rd.,9435.0,Steele Creek Rd,L,Charlotte,Mecklenburg,NC,28273-3299,US,US/Eastern,KCLT,2018-03-04 16:52:00,60.1,,17.0,30.14,10.0,NNE,11.5,,Partly Cloudy,False,False,False,False,False,False,False,False,True,False,False,False,False,Day,Day,Day,Day
244,A-245,2,2019-05-09 14:23:54,2019-05-09 15:08:38,33.516411,-81.729156,33.516411,-81.729156,0.0,Accident on Dougherty Rd at SC-302 Silver Bluff Rd.,600.0,Cardinal Dr,R,Aiken,Aiken,SC,29803-5987,US,US/Eastern,KAIK,2019-05-09 14:15:00,81.0,81.0,54.0,29.54,10.0,SE,8.0,,Partly Cloudy,False,False,False,False,False,False,False,False,False,False,False,False,False,Day,Day,Day,Day
245,A-246,2,2017-03-05 06:54:59,2017-03-05 07:24:35,34.09943,-117.846367,,,0.01,Lane blocked due to accident on Covina Blvd at Sunflower Ave.,4800.0,N Sunflower Ave,R,Covina,Los Angeles,CA,91724-1850,US,US/Pacific,KPOC,2017-03-05 06:47:00,50.0,,87.0,30.01,10.0,Calm,,,Overcast,False,False,False,False,False,False,False,False,False,False,False,True,False,Day,Day,Day,Day
246,A-247,2,2019-10-17 01:42:00,2019-10-17 02:34:33,33.732585,-117.989329,33.732585,-117.989329,0.0,At CA-39/Beach Blvd/Exit 16 - Accident.,,Beach Blvd,R,Huntington Beach,Orange,CA,92647,US,US/Pacific,KSLI,2019-10-17 01:58:00,60.0,,96.0,29.77,10.0,,,0.8,Fair,False,False,False,False,False,False,False,False,False,False,False,False,False,Night,Night,Night,Night
247,A-248,2,2019-11-03 18:50:00,2019-11-03 19:22:48,36.77562,-119.784837,36.77562,-119.784837,0.0,At Shields Ave - Accident.,,CA-41 N,R,Fresno,Fresno,CA,93703,US,US/Pacific,KFAT,2019-11-03 18:53:00,65.0,65.0,33.0,29.61,9.0,CALM,0.0,0.0,Fair,False,False,False,False,False,False,False,False,False,False,False,False,False,Night,Night,Night,Night
248,A-249,2,2020-05-23 21:22:00,2020-05-23 23:35:30,34.034725,-117.974474,34.034725,-117.974474,0.0,At S Hacienda Blvd - Accident.,106.0, N Sunset Ave,L,City Of Industry,Los Angeles,CA,91744-3521,US,US/Pacific,KEMT,2020-05-23 20:53:00,68.0,68.0,59.0,29.8,10.0,W,5.0,0.0,Fair,False,False,False,False,False,False,False,False,True,False,False,False,False,Night,Night,Night,Day
249,A-250,2,2019-12-18 14:19:00,2019-12-18 15:31:45,34.259491,-118.437836,34.259491,-118.437836,0.0,At CA-118/Exit 156A/Exit 156B - Accident.,,Golden State Fwy N,R,Pacoima,Los Angeles,CA,91331,US,US/Pacific,KWHP,2019-12-18 13:55:00,59.0,59.0,13.0,28.98,10.0,WSW,6.0,,Cloudy,False,False,False,False,False,False,False,False,False,False,False,False,False,Day,Day,Day,Day
250,A-251,2,2018-10-03 08:12:05,2018-10-03 08:41:57,39.74004,-84.194923,39.74004,-84.194923,0.0,Accident on Edwin C Moses Blvd at Stewart St.,,W Stewart St,R,Dayton,Montgomery,OH,45417,US,US/Eastern,KDAY,2018-10-03 08:12:00,68.0,,100.0,30.1,0.0,SSW,8.1,,Overcast,False,False,True,False,False,False,False,False,False,False,False,True,False,Day,Day,Day,Day
251,A-252,2,2020-11-25 02:46:00,2020-11-25 05:39:25,38.432375,-122.715965,38.428725,-122.715185,0.256,NB 101 JSO 3RD/DOWNTOWN. WHI JEEP GCH VS UNK SUV,,Redwood Hwy S,R,Santa Rosa,Sonoma,CA,95401,US,US/Pacific,KSTS,2020-11-25 02:53:00,40.0,40.0,100.0,29.99,0.25,CALM,0.0,0.0,Fog,False,False,False,False,True,False,False,False,False,False,False,False,False,Night,Night,Night,Night
252,A-253,2,2019-07-29 17:41:42,2019-07-29 19:48:35,37.622681,-77.457741,37.622681,-77.457741,0.0,Accident on US-1 Brook Rd at Lakeside Ave.,1101.0,Lakeside Ave,L,Henrico,Henrico,VA,23228,US,US/Eastern,KOFP,2019-07-29 17:54:00,91.0,91.0,35.0,29.78,10.0,SSW,7.0,0.0,Fair,False,False,False,False,False,False,False,False,False,False,False,True,False,Day,Day,Day,Day
253,A-254,2,2019-11-26 09:05:35,2019-11-26 09:50:07,39.865639,-88.972939,39.865639,-88.972939,0.0,Right lane closed due to accident on IL-48 Southbound at Ravina Park Rd.,2197.0,N Oakland Ave,L,Decatur,Macon,IL,62526-3129,US,US/Central,KDEC,2019-11-26 08:54:00,42.0,37.0,85.0,29.05,10.0,E,9.0,0.0,Cloudy,False,False,False,False,False,False,False,False,False,False,False,True,False,Day,Day,Day,Day
254,A-255,2,2017-11-13 06:45:52,2017-11-13 07:15:38,35.423435,-97.618668,35.423435,-97.618668,0.0,Accident on OK-152 Airport Rd Eastbound at MacArthur Blvd.,,S MacArthur Blvd,R,Oklahoma City,Oklahoma,OK,73179,US,US/Central,KOKC,2017-11-13 06:52:00,46.9,,86.0,30.37,10.0,East,5.8,,Mostly Cloudy,False,False,False,False,False,False,False,False,False,False,False,False,False,Night,Day,Day,Day
255,A-256,2,2019-05-30 15:18:47,2019-05-30 16:03:35,37.696018,-122.115387,37.696018,-122.115387,0.0,Accident on 163rd Ave at CA-185 14th St.,16300.0,E 14th St,R,San Leandro,Alameda,CA,94578-3110,US,US/Pacific,KHWD,2019-05-30 14:54:00,61.0,61.0,67.0,29.88,10.0,WNW,17.0,0.0,Partly Cloudy,False,False,True,False,False,False,False,False,True,False,False,True,False,Day,Day,Day,Day
256,A-257,2,2018-07-03 07:24:36,2018-07-03 07:54:30,39.651718,-86.05403100000001,39.651718,-86.05403100000001,0.0,Accident on Stop 11 Rd at Combs Rd.,6450.0,E Stop 11 Rd,L,Indianapolis,Marion,IN,46237-9734,US,US/Eastern,KIND,2018-07-03 06:54:00,73.9,,91.0,30.08,7.0,ESE,4.6,,Mostly Cloudy,False,False,False,True,False,False,False,False,False,False,False,False,False,Day,Day,Day,Day
257,A-258,2,2020-07-22 13:40:40,2020-07-22 14:40:24,39.327599,-77.582863,39.327599,-77.582863,0.0,Accident on MD-464 Point Of Rocks Rd at Olive School Rd.,3501.0,Olive School Rd,R,Knoxville,Frederick,MD,21758-8916,US,US/Eastern,KFDK,2020-07-22 13:47:00,93.0,93.0,46.0,29.68,7.0,CALM,0.0,0.0,Partly Cloudy,False,False,False,False,False,False,False,False,False,False,False,False,False,Day,Day,Day,Day
258,A-259,3,2019-10-31 13:52:43,2019-10-31 17:33:08,45.041573,-93.28492,45.041573,-93.28492,0.0,Lane blocked due to accident on I-94 Westbound at Exit 226 Lyndale Ave.,,I-94 E,R,Minneapolis,Hennepin,MN,55430,US,US/Central,KMIC,2019-10-31 13:53:00,31.0,31.0,54.0,29.11,10.0,CALM,0.0,0.0,Fair,False,False,False,False,False,False,False,False,False,False,False,False,False,Day,Day,Day,Day
